,Unnamed: 0,Unnamed: 0.1,_id,address,description,late6,lnge6,name,player,timestamp,updated,usage,index,village,town,city,country,postcode,country_code,ct,lat,lon,team,agent,team_size
0,0,0,ObjectId(5c223622816b2431634e8b19),"Hylperdijk 2, 8711 HJ Workum, Netherlands",,52967186,5426965,Molen Workum,_NEUTRAL_,2020-07-18 13:52:24.620000+00:00,2020-07-18 13:52:24.620000+00:00,"{""timestamp"":{""$numberLong"":""1588103535528""},""plain"":6}",5366552,,,Súdwest-Fryslân,The Netherlands,8711HK,NL,Súdwest-Fryslân,52.967186,5.426965,ALIENS,ellende,1.0
1,1,1,ObjectId(5c65115063c50c1d51e70e9a),"Stienitzseestraße 33, 12489 Berlin, Germany",,52440244,13549760,Erich Steinfurth,,2012-11-15 00:00:00+00:00,2019-02-14 06:57:20+00:00,"{""timestamp"":{""$numberLong"":""1490000000000""},""plain"":2}",7928040,,,Berlin,Germany,12489,DE,Berlin,52.440244,13.54976,ALIENS,Si9,1.0
2,2,2,ObjectId(5dd0ee0dbf5db3472afc744c),"Rua Edgar Torres, 878 - Minas Caixa, Belo Horizonte - MG, 31610-510, Brazil",Arte urbana,-19807552,-43954239,Grafite Irmãos Metralha,_NEUTRAL_,2020-07-19 15:15:07.555000+00:00,2020-07-19 15:15:07.555000+00:00,"{""timestamp"":{""$numberLong"":""1580516993627""},""plain"":2}",9785072,,,Belo Horizonte,Brazil,31615250,BR,Belo Horizonte,-19.807552,-43.954239,MISSING,,0.0
3,3,3,ObjectId(5e9d2a5e402e17f771e8e238),"U 5 ježků, Podzásepská, Hoděšovice, Býšť, okres Pardubice, Pardubický kraj, Northeast, 533 22, Czech Republic",,50168534,15926050,Dendrofon,_NEUTRAL_,2020-07-18 09:28:38.897000+00:00,2020-07-18 09:28:38.897000+00:00,,11496402,Býšť,,,Czech Republic,533 22,CZ,Býšť,50.168534,15.92605,MISSING,,0.0
4,4,4,ObjectId(5c22358a816b24316329ac0d),"Zámok 2267/1, 920 01 Hlohovec, Slovakia",,48419408,17788097,Tabula Polepsovne,_NEUTRAL_,2020-07-19 01:43:30.537000+00:00,2020-07-19 01:43:30.537000+00:00,"{""timestamp"":{""$numberLong"":""1574613857921""},""plain"":1}",3026947,,,District of Hlohovec,Slovakia,920 01,SK,District of Hlohovec,48.419408,17.788097,RESISTANCE,doktorlevin,2.0
5,5,5,ObjectId(5c22369c816b243163681cea)," South Korea, Cheju, Ido 2(i)-dong, 106 이도주공1단지아파트 ",나의 행복충전소,33492170,126534565,세븐일레븐 제주이도중앙점,_NEUTRAL_,2020-07-20 02:52:10.332000+00:00,2020-07-20 02:52:10.332000+00:00,"{""timestamp"":{""$numberLong"":""1580294265148""},""plain"":2}",6981393,,,Jeju,South Korea,,KR,Jeju,33.49217,126.534565,ALIENS,hanmiho,1.0
6,6,6,ObjectId(5c2235a9816b2431633166ec),"577-2 Yabechō, Totsuka-ku, Yokohama-shi, Kanagawa-ken 244-0002, Japan",梅園稲荷社,35410826,139532052,梅園稲荷社,756B,2020-01-09 13:15:39+00:00,2020-07-19 06:54:13.163000+00:00,"{""timestamp"":{""$numberLong"":""1590618557480""},""plain"":4}",3515241,,,,Japan,244-0003,JP,,35.410826,139.532052,ALIENS,756B,2.0
7,7,7,ObjectId(5e0337ed1d69b2b9becc6939),"Prospekt P. Belyayeva, 16, Naberezhnye Chelny, Respublika Tatarstan, Russia, 423809",Площадка с горкой и крутилкой,55736163,52402160,Детская площадка 16/09,_NEUTRAL_,2020-07-18 11:42:40.220000+00:00,2020-07-18 11:42:40.220000+00:00,"{""timestamp"":{""$numberLong"":""1585230933522""},""plain"":3}",10366706,,,Naberezhnye Chelny,Russia,423819,RU,Naberezhnye Chelny,55.736163,52.40216,MISSING,,0.0
8,8,8,ObjectId(5c223545816b2431631617da),"210 Cedar Avenue, St. Charles, IL 60174, USA",Local boutique business,41914824,-88311589,Directions in Clothing,_NEUTRAL_,2020-07-19 00:54:25.333000+00:00,2020-07-19 00:54:25.333000+00:00,"{""timestamp"":{""$numberLong"":""1588272944414""},""plain"":3}",1780334,,St. Charles,,United States of America,60174,US,St. Charles,41.914824,-88.311589,RESISTANCE,lilzen,1.0
9,9,9,ObjectId(5c44c369f9cca9d4cbe645a4),"Rúa Alexandre Bóveda, 127, 36989 O Con, Pontevedra, Spain",Campo De Fútbol 7 En Terra De Porto.,42495449,-8873661,Campo Fútbol 7,ValenPortonovo,2020-07-01 23:04:45+00:00,2020-07-19 07:23:04.132000+00:00,"{""timestamp"":{""$numberLong"":""1593644634141""},""plain"":3}",7655647,,,,Spain,36980,ES,,42.495449,-8.873661,ALIENS,MoNPhOto,1.0
10,10,10,ObjectId(5c493c72f9cca9d4cb1d7449),"Japan, 〒360-0832 Saitama-ken, Kumagaya-shi, Kojima, 熊谷さくら運動公園施設管理事務所",施設管理事務所前にある公園の案内図。,36155680,139345310,熊谷さくら運動公園案内図,ShakeChirakomu,2020-06-21 10:17:55+00:00,2020-07-20 00:53:06.323000+00:00,"{""timestamp"":{""$numberLong"":""1592737270062""},""plain"":4}",7698467,,,Kumagaya,Japan,369-1109,JP,Kumagaya,36.15568,139.34531,RESISTANCE,0siliuz0,1.0
11,11,11,ObjectId(5c223583816b24316327718d),"Woudweg 9, 7381 BA Klarenbeek, Netherlands",,52165499,6014708,Beekbergerwoud,EtRaket,2020-06-28 11:00:33+00:00,2020-07-17 19:07:17.240000+00:00,"{""timestamp"":{""$numberLong"":""1593342033165""},""plain"":2}",2884529,,,Apeldoorn,The Netherlands,7381AM,NL,Apeldoorn,52.165499,6.014708,ALIENS,Panchov,1.0
12,12,12,ObjectId(5c2235e0816b2431633edad3),"Jalan Setia, Taman Arasu, 32000 Sitiawan, Perak, Malaysia",,4211132,100695625,Persatuan Buddhist Sitiawan,RemingtonYam,2020-07-10 13:15:39+00:00,2020-07-18 06:52:43.803000+00:00,"{""timestamp"":{""$numberLong"":""1594387051383""},""plain"":4}",4372233,,Sitiawan,,Malaysia,32000,MY,Sitiawan,4.211132,100.695625,RESISTANCE,minjiet,4.0
13,13,13,ObjectId(5c223540816b243163144d13),"93 Funata, Matsuzaki-chō, Kamo-gun, Shizuoka-ken 410-3606, Japan","
",34762037,138813709,祠,_NEUTRAL_,2020-07-18 03:21:37.642000+00:00,2020-07-18 03:21:37.642000+00:00,"{""timestamp"":{""$numberLong"":""1556568946870""},""plain"":2}",1665850,,Matsuzaki,,Japan,410-3611,JP,Matsuzaki,34.762037,138.813709,RESISTANCE,recksnow08,1.0
14,14,14,ObjectId(5cde6e99a71a94cfa5c4e589),"Jiřího Franka 1742, 256 01 Benešov, Czechia",Multifunkční sportovní hřiště s koši na basket a brankami na fobal. Po natažení sítě lze hrát i volejbal. ,49789953,14696556,Sportovní hřiště J. Franka,_NEUTRAL_,2020-07-18 06:09:50.620000+00:00,2020-07-18 06:09:50.620000+00:00,"{""timestamp"":{""$numberLong"":""1586167465741""},""plain"":1}",8629273,,Benešov,,Czech Republic,25601,CZ,Benešov,49.789953,14.696556,ALIENS,Bohemista,1.0
15,15,15,ObjectId(5ec43d0c04dea7bd572d8406),"6260 Lake St, Morton Grove, IL 60053, USA",,42043013,-87783283,Harrer Park Baseball Field 1,MajorMalfunctn,2020-07-04 00:37:02+00:00,2020-07-19 09:52:02.488000+00:00,"{""timestamp"":{""$numberLong"":""1593823022932""},""plain"":2}",11994425,Morton Grove,,,United States of America,60053,US,Morton Grove,42.043013,-87.783283,MISSING,,0.0
16,16,16,ObjectId(5d2fcdd9572d3acc4fe7f4d5),"China, 高新园区杨树街4-10号",,38877711,121543502,东财牛,_NEUTRAL_,2020-07-18 05:16:42.965000+00:00,2020-07-18 05:16:42.965000+00:00,"{""timestamp"":{""$numberLong"":""1579257173852""},""plain"":2}",9004055,,Heishijiao Subdistrict,,China,116024,CN,Heishijiao Subdistrict,38.877711,121.543502,RESISTANCE,MannyWang,1.0
17,17,17,ObjectId(5c223511816b2431630683bd),"1 Chome-32-1 Hosononishi, Seika, Soraku District, Kyoto Prefecture, Japan",,34760151,135788671,彫刻,bkuchen4311,2020-07-12 02:35:06+00:00,2020-07-19 19:14:32.275000+00:00,"{""timestamp"":{""$numberLong"":""1594521306142""},""plain"":1}",789080,,Seika,,Japan,〒619-0246,JP,Seika,34.760151,135.788671,ALIENS,ignisjpn,1.0
18,18,18,ObjectId(5c223610816b2431634acb0d),"21 E Echo Dr, White Cloud, MI 49349, USA",,43541267,-85801105,Glory Of The Latter House Ministries,_NEUTRAL_,2020-07-19 07:45:44.416000+00:00,2020-07-19 07:45:44.416000+00:00,"{""timestamp"":{""$numberLong"":""1589042122968""},""plain"":2}",5130891,White Cloud,,,United States of America,49349,US,White Cloud,43.541267,-85.801105,ALIENS,Wired4Sound,1.0
19,19,19,ObjectId(5c22369f816b24316368c5b6),"14900 Detroit Ave, Lakewood, OH 44107, USA",,41485142,-81800776,Rozi's Wine House ,AlcAce,2020-07-19 18:49:44+00:00,2020-07-19 19:05:01.093000+00:00,"{""timestamp"":{""$numberLong"":""1595184584323""},""plain"":2}",7023550,,,Lakewood,United States of America,44107,US,Lakewood,41.485142,-81.800776,ALIENS,Taratabong,1.0
20,20,20,ObjectId(5c223524816b2431630c2744),"Estrada Praia de Cesantes, 129A, 36693 Redondela, Pontevedra, Spain",Place in Vigo's ría where capitan Memo arrives,42308375,-8628466,Submarino do Capitán Nemo,_NEUTRAL_,2020-07-18 12:16:55.760000+00:00,2020-07-18 12:16:55.760000+00:00,"{""timestamp"":{""$numberLong"":""1593938374903""},""plain"":3}",1148412,,,,Spain,36693,ES,,42.308375,-8.628466,ALIENS,PETROGLIFO,1.0
21,21,21,ObjectId(5d825826707d7a0dd3bab1a5),"1521-1 Mandokorochō, Higashiomi, Shiga 527-0204, Japan","木地師のふるさとへの案内板
看板の方へ進んではいけない",35103382,136367961,木地師街道案内板,donechary,2020-06-04 07:41:25.114000+00:00,2020-07-19 16:13:25.829000+00:00,"{""timestamp"":{""$numberLong"":""1588639011309""},""plain"":1}",9344895,,,Higashiomi,Japan,,JP,Higashiomi,35.103382,136.367961,ALIENS,azukisansank,1.0
22,22,22,ObjectId(5c223530816b2431630ff222),"Via Arduino Casale, 33, 10010 Lessolo TO, Italy",,45481224,7823793,Altarino Votivo ,_NEUTRAL_,2020-07-18 17:01:43.776000+00:00,2020-07-18 17:01:43.776000+00:00,"{""timestamp"":{""$numberLong"":""1580747556332""},""plain"":1}",1388377,Lessolo,,,Italy,10010,IT,Lessolo,45.481224,7.823793,ALIENS,Luke1986,1.0
23,23,23,ObjectId(5cf7ce4a4d02b972d8cba3ae),"1454 N Sierra Heights, Mesa, AZ 85207, USA",,33442158,-111633593,Sierra Heights Playground,_NEUTRAL_,2020-07-18 08:50:24.255000+00:00,2020-07-18 08:50:24.255000+00:00,"{""timestamp"":{""$numberLong"":""1592190752537""},""plain"":2}",8757085,,,Mesa,United States of America,85207,US,Mesa,33.442158,-111.633593,RESISTANCE,Newfriend,1.0
24,24,24,ObjectId(5ded4ce31d69b2b9bee0c669),"Unnamed Road, 12349 Berlin, Germany",Spielplatz mit Sprungmatten und zwei Schaukelanlagen. Die angrenzende Spielwiese ist auch ein Publikumsmagnet.,52433260,13419616,Schaukel- und Spring-Spielplatz an der Spielwiese,BL03,2020-06-02 10:08:05+00:00,2020-07-18 21:18:31.081000+00:00,"{""timestamp"":{""$numberLong"":""1593958996181""},""plain"":6}",10183036,,,,Germany,12349,DE,,52.43326,13.419616,MISSING,,0.0
25,25,25,ObjectId(5da72e6a707d7a0dd3d08570),"Camino de Brácana a La Loma, Cortijo Fuente de la Perdiz, Íllora, Comarca de Loja, Granada, Andalusia, 18381, Spain",Perteneciente al Instituto Geográfico Nacional y número de registro 100873. Ubicado en el término municipal de Íllora. ,37230770,-3922159,Vértice Geodésico Arache,_NEUTRAL_,2020-07-19 15:03:07.513000+00:00,2020-07-19 15:03:07.513000+00:00,"{""timestamp"":{""$numberLong"":""1490000000000""},""plain"":2}",9535646,,Íllora,,Spain,18381,ES,Íllora,37.23077,-3.922159,MISSING,,0.0
26,26,26,ObjectId(5ef0933ff7064100f4625deb),"Nomi-Rubel-Straße, Ottersleben, Magdeburg, Saxony-Anhalt, 39116, Germany",,52096733,11569197,Ein Baum für Magdeburg,_NEUTRAL_,2020-07-18 13:23:43.325000+00:00,2020-07-18 13:23:43.325000+00:00,,12288512,,,Magdeburg,Germany,39116,DE,Magdeburg,52.096733,11.569197,MISSING,,0.0
27,27,27,ObjectId(5c3cec9bf9cca9d4cb1bc83f),"Aulas, Oficinas y Laboratorios FIEC, Avenida Principal de la ESPOL, Guayaquil, Ecuador",Cartel de información ubicada en el bloque de la fiec nueva,-2145078,-79967479,Cartel De Información De Fiec,_NEUTRAL_,2020-07-19 15:04:59.761000+00:00,2020-07-19 15:04:59.761000+00:00,"{""timestamp"":{""$numberLong"":""1575989946846""},""plain"":3}",7487711,,,Guayaquil,Ecuador,EC090150,EC,Guayaquil,-2.145078,-79.967479,RESISTANCE,RyanSan19,1.0
28,28,28,ObjectId(5c22365e816b2431635bc74d),"Ulitsa Pribyl'skogo, Tobolsk, Tyumenskaya oblast', Russia, 626157",,58244713,68275913,Нагорная мечеть,bodtaib,2020-05-26 03:01:04+00:00,2020-07-19 03:50:56.529000+00:00,"{""timestamp"":{""$numberLong"":""1590462064458""},""plain"":3}",6201845,,,Tobolsk,Russia,626157,RU,Tobolsk,58.244713,68.275913,RESISTANCE,Koregon,1.0
29,29,29,ObjectId(5c223534816b24316310eac0),"Calle de Venustiano Carranza 15, Centro, Cuauhtémoc, 06000 Mexico City, Federal District, Mexico",,19432089,-99141029,Librería Juan Jose Arreola,kr0n05kira,2020-07-18 22:13:06+00:00,2020-07-18 22:25:13.610000+00:00,"{""timestamp"":{""$numberLong"":""1595110386500""},""plain"":2}",1450127,,,Mexico City,Mexico,06000,MX,Mexico City,19.432089,-99.141029,RESISTANCE,arturinho10,3.0
30,30,30,ObjectId(5c2235d2816b2431633b5ddf),"1 Avenue de la République, 64200 Biarritz, France",Cathedral entrance ,43478998,-1561891,Crucifix,LezOU,2020-07-16 09:14:12+00:00,2020-07-19 02:41:34.466000+00:00,"{""timestamp"":{""$numberLong"":""1594890852391""},""plain"":2}",4150552,,Biarritz,,France,64200,FR,Biarritz,43.478998,-1.561891,ALIENS,5epsis,1.0
31,31,31,ObjectId(5c2235dc816b2431633df60f),"Rua Doutor Miguel Vieira Ferreira, 244 - Ramos, Rio - Rio de Janeiro, Brazil",,-22855167,-43262436,Igreja Presbiteriana De Ramos,_NEUTRAL_,2020-07-17 21:18:02.600000+00:00,2020-07-17 21:18:02.600000+00:00,"{""timestamp"":{""$numberLong"":""1583155038376""},""plain"":1}",4316519,,,Rio de Janeiro,Brazil,21032-060,BR,Rio de Janeiro,-22.855167,-43.262436,RESISTANCE,Monergist,2.0
32,32,32,ObjectId(5c2234f8816b243163fe699a),"Kreuzweg 40, 63456 Hanau, Germany",,50111503,8912392,rotes Steingebilde IV,PatrickVR6,2020-07-04 09:42:32+00:00,2020-07-20 03:36:37.197000+00:00,"{""timestamp"":{""$numberLong"":""1595215370948""},""plain"":4}",272819,,Hanau,,Germany,63456,DE,Hanau,50.111503,8.912392,RESISTANCE,Pega5u5,2.0
33,33,33,ObjectId(5cefb3f13d0a0ad85310130b),"Maisanraitti 49, 34260 Tampere, Finland",,61696588,23824161,Maisansalon Grillikota,_NEUTRAL_,2020-07-18 20:07:18.258000+00:00,2020-07-18 20:07:18.258000+00:00,"{""timestamp"":{""$numberLong"":""1592610181146""},""plain"":3}",8703773,,,Tampere,Finland,,FI,Tampere,61.696588,23.824161,ALIENS,kermifi,1.0
34,34,34,ObjectId(5c223608816b243163489928),"86 Askew Road, White City, London W12, UK",Local community library,51503563,-243327,Askew Road Library,GeneralMalarkey,2020-07-16 18:03:33+00:00,2020-07-19 11:57:06.752000+00:00,"{""timestamp"":{""$numberLong"":""1594922630914""},""plain"":4}",4991298,,,London,United Kingdom,W12 9AU,GB,London,51.503563,-0.243327,ALIENS,almostwitty,1.0
35,35,35,ObjectId(5c2234fc816b243163ff3f43),"28 Miller Street, Queanbeyan West NSW 2620, Australia",,-35359851,149209446,Letchworth Neighborhood Centre,_NEUTRAL_,2020-07-18 12:45:39.553000+00:00,2020-07-18 12:45:39.553000+00:00,"{""timestamp"":{""$numberLong"":""1592705028460""},""plain"":5}",326154,,,Queanbeyan,Australia,2620,AU,Queanbeyan,-35.359851,149.209446,RESISTANCE,Lainee777,1.0
36,36,36,ObjectId(5e88116b402e17f77130c1ff),"IBP Road, Legazpi Port District, Legazpi City, Albay, Philippines","Legaspi City, Albay",13143911,123746695,Ibalong Center for Recreation,Joelzkie,2020-07-07 06:03:57+00:00,2020-07-17 10:09:34.487000+00:00,"{""timestamp"":{""$numberLong"":""1594101822510""},""plain"":3}",11164477,Cabagñan East,,,Philippines,4500,PH,Cabagñan East,13.143911,123.746695,ALIENS,Burg00,1.0
37,37,37,ObjectId(5d0a23fd3cba16236845ea79),"5784 US-90, Theodore, AL 36582, USA",5784 US 90,30557796,-88173738,Caring Christian Ministry,_NEUTRAL_,2020-07-19 22:55:41.952000+00:00,2020-07-19 22:55:41.952000+00:00,"{""timestamp"":{""$numberLong"":""1582735680719""},""plain"":1}",8866662,,,,United States of America,36582,US,,30.557796,-88.173738,ALIENS,KarKatSasha,1.0
38,38,38,ObjectId(5c22354d816b243163184e58),"Alte Berliner Straße 20, 38165 Lehre, Germany",,52357095,10706799,Kriegerdenkmal Flechtorf,SchorseJunior,2020-06-12 14:25:18+00:00,2020-07-19 08:38:42.952000+00:00,"{""timestamp"":{""$numberLong"":""1591972039152""},""plain"":5}",1921690,,,Lehre,Germany,38165,DE,Lehre,52.357095,10.706799,RESISTANCE,PassengerX,1.0
39,39,39,ObjectId(5ca081d84f641bf416824a9f),"31 Maldon Rd, Witham CM8 1HN, UK",A small recreational playground in the town centre. Complete with basketball court and football goals. A chance to prove white men can jump.,51798311,642830,Town Centre Basketball Hoop,Yatesatron,2020-07-03 15:12:42+00:00,2020-07-18 22:55:17.595000+00:00,"{""timestamp"":{""$numberLong"":""1593789162245""},""plain"":1}",8365133,,Braintree,,United Kingdom,CM8 1HN,GB,Braintree,51.798311,0.64283,ALIENS,Plubly,1.0
40,40,40,ObjectId(5c223581816b24316327015d),"134 Beech Park, Leixlip, Co. Kildare, Ireland",Old entrance to historic Castletown house,53362213,-6525423,Leixlip Gate,_NEUTRAL_,2020-07-19 04:44:47.889000+00:00,2020-07-19 04:44:47.889000+00:00,"{""timestamp"":{""$numberLong"":""1490000000000""},""plain"":2}",2856572,,Leixlip Electoral Division,,Ireland,,IE,Leixlip Electoral Division,53.362213,-6.525423,ALIENS,theloother,1.0
41,41,41,ObjectId(5e2033811d69b2b9be6247cf),"Reja 11, 78-400 Szczecinek, Poland",Osiedlowa bujawka dla dzieci,53707157,16699825,Różowa bujawka,_NEUTRAL_,2020-07-19 09:05:47.393000+00:00,2020-07-19 09:05:47.393000+00:00,"{""timestamp"":{""$numberLong"":""1584740298857""},""plain"":4}",10570573,,Szczecinek,,Poland,78-400,PL,Szczecinek,53.707157,16.699825,MISSING,,0.0
42,42,42,ObjectId(5c223580816b24316326c5fe),"Jalan Hayam Wuruk No.302, Denpasar Timur, Kota Denpasar, Bali 80239, Republic of Indonesia",Mural ciamik,-8671583,115244066,Mural Ciamik,AgentNgopi,2020-07-17 17:15:06+00:00,2020-07-17 17:15:06+00:00,"{""timestamp"":{""$numberLong"":""1595006106930""},""plain"":1}",2841803,Sumerta Kelod,,Denpasar,Indonesia,80239,ID,Denpasar,-8.671583,115.244066,RESISTANCE,BasiLy,1.0
43,43,43,ObjectId(5da93907707d7a0dd36f5c8d),"County of Grande Prairie, Alberta, Canada",Inspiring responsible resource development through innovation ,55109322,-118758096,Evergreen Learning & Innovation Centre,_NEUTRAL_,2020-07-19 06:17:48.945000+00:00,2020-07-19 06:17:48.945000+00:00,"{""timestamp"":{""$numberLong"":""1490000000000""},""plain"":2}",9554427,,,,Canada,,CA,,55.109322,-118.758096,MISSING,,0.0
44,44,44,ObjectId(5c223522816b2431630b8ad6),"Rua Professor Benedito Monteiro, 122-166 - Madalena, Recife - Pernambuco, Brazil","Boneco chinês
Guardião do portal",-8060089,-34903909,Guardião de Concreto,Hyperion89,2020-06-01 18:34:56+00:00,2020-07-19 06:58:46.678000+00:00,"{""timestamp"":{""$numberLong"":""1593642089161""},""plain"":1}",1109350,,,Recife,Brazil,50720-545,BR,Recife,-8.060089,-34.903909,ALIENS,HeitorCaldas,1.0
45,45,45,ObjectId(5c93ff46975ddd392397a884),"R. José Bonifácio, 289-293 - Centro, Mogi das Cruzes - SP, 08710-070, Brazil","Praça com área prioritária para pedestres, localizada em frente á catedral de Sant'ana. Também é a praça onde está localizado o obelisco de marco zero da cidade.",-23523432,-46191737,Praça Coronel Benedito De Almeida,_NEUTRAL_,2020-07-18 12:04:20.191000+00:00,2020-07-18 12:04:20.191000+00:00,"{""timestamp"":{""$numberLong"":""1589631127277""},""plain"":1}",8328435,,,Mogi das Cruzes,Brazil,08710-330,BR,Mogi das Cruzes,-23.523432,-46.191737,ALIENS,Originalno,1.0
46,46,46,ObjectId(5de19acd1d69b2b9bef48e33),"Księdza Jerzego Popiełuszki 33, 20-400 Lublin, Poland",,51254580,22533504,Drewniany Plac Zabaw Otoczony Piaskiem,diedmaroz,2020-07-17 13:12:55+00:00,2020-07-17 13:43:04.136000+00:00,"{""timestamp"":{""$numberLong"":""1595079512698""},""plain"":6}",10076378,,,Lublin,Poland,20-052,PL,Lublin,51.25458,22.533504,MISSING,,0.0
47,47,47,ObjectId(5eade50804dea7bd5777cd80),"Carrillo 6, Puertas del Sol, 76114 Santiago de Querétaro, Querétaro, Mexico","Unidad deportiva El Sol 
 Cuenta con canchas de  Básquet, Futball, Tenis, areas verdes, baños y Cafetería .
 Ubicado en Prolongación Bernardo Quintana Colonia el Sol.",20616265,-100442397,Deportivo El Sol,evilqueen333,2020-07-11 23:20:20+00:00,2020-07-19 16:13:03.997000+00:00,"{""timestamp"":{""$numberLong"":""1594509620571""},""plain"":2}",11864397,,,Querétaro,Mexico,76114,MX,Querétaro,20.616265,-100.442397,RESISTANCE,Maytus,1.0
48,48,48,ObjectId(5c756c08596fdafe8632cb74),"Carretera Cristo Rañal, 5, 15563, La Coruña, Spain",,43564516,-8013860,Cruceiro de San Ramón - Moeche,_NEUTRAL_,2020-07-17 13:44:51.891000+00:00,2020-07-17 13:44:51.891000+00:00,"{""timestamp"":{""$numberLong"":""1590792702570""},""plain"":1}",8097715,Moeche,,,Spain,15563,ES,Moeche,43.564516,-8.01386,ALIENS,Pablito,1.0
49,49,49,ObjectId(5c223693816b243163660065),"589-591 Park Ave, Paterson, NJ 07504, USA",,40913292,-74139395,Christopher Columbus,SketchyJohn,2020-07-18 18:25:45+00:00,2020-07-18 18:54:56.238000+00:00,"{""timestamp"":{""$numberLong"":""1595096745400""},""plain"":1}",6847826,,,Paterson,United States of America,07504,US,Paterson,40.913292,-74.139395,RESISTANCE,AWiseFool,1.0
50,50,50,ObjectId(5e9fa719402e17f771341cde),"Jotunheimstien, Gjøvik, Innlandet, Norway",,60718957,10504129,Trebrua ved Tjernsmyra,_NEUTRAL_,2020-07-18 10:26:45.632000+00:00,2020-07-18 10:26:45.632000+00:00,,11655719,,Gjøvik,,Norway,2839,NO,Gjøvik,60.718957,10.504129,MISSING,,0.0
51,51,51,ObjectId(5c2235bf816b2431633686d8),"223-299 Virginia Ave, Colonial Heights, VA","Lt. Col. Walter H. Taylor, Confederate Gen. Robert E. Lee’s aide, established Lee’s headquarters here at Violet Bank on June 17, 1864, at the beginning of the siege of Petersburg. The city, protected by Confederate defensive works to the east and south, remained connected to Richmond, the Confederate capital, via the Richmond and Petersburg Railroad as well as the Manchester and Petersburg Turnpike. Violet Bank was located near each transportation route, enabling Lee to travel quickly to Richmond to confer with Confederate President Jefferson Davis, who also visited Lee here. While at Violet Bank, Lee learned of the explosion that began the Battle of The Crater on July 30, 1864, and rushed to the front to direct the Confederate counterattack. Lee spent a good deal of time north of the James River at Chaffin’s Bluff after August 15, but maintained his headquarters here until October 28, when he moved to another location in Petersburg. Union troops occupied Violet Bank briefly after Lee evacuated Petersburg on April 2-3. 1865.<br><br>  <i>(sidebar)</i><br> This is the second house located on this site. Thomas Shore constructed the first house here in 1778; it burned in 1810. The present house, which Shore’s widow completed in 1815, resembled Richmond houses designed or influenced by noted architect Benjamin Henry Latrobe, as well as Alexander Parris, a New Englander who designed the Governor’s Mansion in Richmond. Violet Bank is noteworthy for its refined architectural features, including the three-part bays, intricate woodwork, and elaborate plaster ornamentation. The house served as the home of the Colonial Heights Post No. 284 of the American Legion from 1948 until 1959. It is now operated as a house museum.",37241700,-77405200,Lee at Violet Bank,_NEUTRAL_,2020-07-18 23:39:58.408000+00:00,2020-07-18 23:39:58.408000+00:00,"{""timestamp"":{""$numberLong"":""1578680575435""},""plain"":1}",3842060,,Colonial Heights,Colonial Heights,United States of America,23834,US,Colonial Heights,37.2417,-77.4052,RESISTANCE,TwisTtTwiTcH,2.0
52,52,52,ObjectId(5c22364a816b243163576891),"Schlösslistrasse 17, 2504 Biel, Switzerland",,47152484,7268273,Fontaine de 1840,_NEUTRAL_,2020-07-18 11:11:47.525000+00:00,2020-07-18 11:11:47.525000+00:00,"{""timestamp"":{""$numberLong"":""1568111492302""},""plain"":2}",5927124,,Biel/Bienne,,Switzerland,2504,CH,Biel/Bienne,47.152484,7.268273,RESISTANCE,gagamaster,1.0
53,53,53,ObjectId(5c4eaec8bfa846742163f9f5),"Jl. Pamugaran Bulak Laut, Pangandaran, Jawa Barat 46396, Indonesia",,-7704039,108657637,Masjid Kubah Emas Baiturrahman,_NEUTRAL_,2020-07-18 06:52:58.076000+00:00,2020-07-18 06:52:58.076000+00:00,"{""timestamp"":{""$numberLong"":""1565134280020""},""plain"":4}",7744486,Pangandaran,,,Indonesia,49396,ID,Pangandaran,-7.704039,108.657637,ALIENS,ilickur69,1.0
54,54,54,ObjectId(5dee35271d69b2b9beeee074),"84 Braybrooke Rd, Desborough, Kettering NN14 2LJ, UK",Located just off Braybrook Rd this sports area was formally a playground however the play equipment was removed many years ago.,52446120,-834987,Braybrooke Road Football Pitch,_NEUTRAL_,2020-07-17 12:25:36.943000+00:00,2020-07-17 12:25:36.944000+00:00,"{""timestamp"":{""$numberLong"":""1577133032398""},""plain"":2}",10190720,,Kettering,,United Kingdom,NN14 2FE,GB,Kettering,52.44612,-0.834987,MISSING,,0.0
55,55,55,ObjectId(5c22365e816b2431635bce42),"Pappilantie 14, 33980 Pirkkala, Finland",,61460566,23566919,Muuaalle haudattujen muistomerkki,_NEUTRAL_,2020-07-19 09:56:10.856000+00:00,2020-07-19 09:56:10.856000+00:00,"{""timestamp"":{""$numberLong"":""1593263831671""},""plain"":4}",6203557,,Pirkkala,,Finland,33980,FI,Pirkkala,61.460566,23.566919,ALIENS,Vaeltaja,1.0
56,56,56,ObjectId(5c223525816b2431630c845c),"143 Keen St, Lismore NSW 2480, Australia",,-28809362,153278150,Life Pole,Dazzrad,2020-07-14 04:44:48+00:00,2020-07-19 14:12:18.349000+00:00,"{""timestamp"":{""$numberLong"":""1594701888960""},""plain"":2}",1171663,,,,Australia,2480,AU,,-28.809362,153.27815,RESISTANCE,Jacobstaff,1.0
57,57,57,ObjectId(5c2235a6816b24316330ad62),"Zähringerstraße 14, 69234 Dielheim, Germany",,49283225,8735358,Jesus Kreuz ,Niggl,2020-07-02 19:58:01+00:00,2020-07-20 01:11:57.511000+00:00,"{""timestamp"":{""$numberLong"":""1593720565480""},""plain"":1}",3469582,Dielheim,,,Germany,69234,DE,Dielheim,49.283225,8.735358,ALIENS,Massani1801,2.0
58,58,58,ObjectId(5dc082f0bf5db3472a6b92b2),"Lutherpl. 4, 01662 Meißen, Germany",Spielplatz in Meißen Cölln am Lutherplatz.,51159906,13485238,Spieli Lutherplatz,_NEUTRAL_,2020-07-19 00:13:59.646000+00:00,2020-07-19 00:13:59.646000+00:00,"{""timestamp"":{""$numberLong"":""1594399915047""},""plain"":3}",9686879,,Meißen,,Germany,01662,DE,Meißen,51.159906,13.485238,MISSING,,0.0
59,59,59,ObjectId(5c2235c5816b243163381a78),"Ulitsa 70 Letiya Oktyabrya, Novy Urengoy, Yamalo-Nenetskiy, Russia, 629307",Вентильный стенд,66119094,76668961,Часы: Nord Stream,_NEUTRAL_,2020-07-19 12:46:51.920000+00:00,2020-07-19 12:46:51.920000+00:00,"{""timestamp"":{""$numberLong"":""1587115981614""},""plain"":4}",3942807,,,Novy Urengoy,Russia,629303,RU,Novy Urengoy,66.119094,76.668961,RESISTANCE,Mageeg,1.0
60,60,60,ObjectId(5c2236b8816b2431636e32b6),"46-48 Boulevard Raspail, 75006 Paris, France","Ici
Est tombé pour la France
Un F.F.I inconnu
Le 21 août 1944",48851127,2326739,Plaque commémorative FFI inconnu,_NEUTRAL_,2020-07-19 13:50:10.852000+00:00,2020-07-19 13:50:10.852000+00:00,"{""timestamp"":{""$numberLong"":""1594843519226""},""plain"":3}",7369951,,,Paris,France,75006,FR,Paris,48.851127,2.326739,ALIENS,Lasteele,1.0
61,61,61,ObjectId(5c22357e816b24316325f6fc),"3 Shenton Lane, Market Bosworth, Nuneaton, Leicestershire CV13 0PN, UK","Memorial stone placed at the entrance to Bosworth cemetery, which opened in 2006. ",52622303,-1402607,Bosworth Cemetery Stone,_NEUTRAL_,2020-07-17 12:24:28.077000+00:00,2020-07-17 12:24:28.077000+00:00,"{""timestamp"":{""$numberLong"":""1577788321481""},""plain"":2}",2790158,,,Hinckley and Bosworth,United Kingdom,CV13 0LA,GB,Hinckley and Bosworth,52.622303,-1.402607,ALIENS,Benchamoneh,1.0
62,62,62,ObjectId(5c2235f9816b243163450388),"Måndagsvägen 17, 123 60 Farsta, Sweden",,59259417,18093521,Salmon Meets Eagle,Sockan47,2020-07-18 09:52:29+00:00,2020-07-18 10:23:01.770000+00:00,"{""timestamp"":{""$numberLong"":""1595065997079""},""plain"":5}",4763124,,,Stockholm,Sweden,123 60,SE,Stockholm,59.259417,18.093521,ALIENS,KaliYuga,1.0
63,63,63,ObjectId(5eba153804dea7bd57bf9374),"Rua Santo Dias da Silva, Jardim Campestre, Bairro dos Casa, São Bernardo do Campo, Região Imediata de São Paulo, Região Metropolitana de São Paulo, Região Geográfica Intermediária de São Paulo, São Paulo, Southeast Region, 09852-700, Brazil",,-23738188,-46581276,Igreja APACES do Sitio Bom Jesus,_NEUTRAL_,2020-07-20 00:42:29.027000+00:00,2020-07-20 00:42:29.027000+00:00,,11933591,,,São Bernardo do Campo,Brazil,09852-700,BR,São Bernardo do Campo,-23.738188,-46.581276,MISSING,,0.0
64,64,64,ObjectId(5c2235fa816b243163454af4),"Hämeentie 28, 30100 Forssa, Finland",,60814467,23642263,Jehovan todistajien valtakunnansali,Tuoke,2020-07-04 10:43:17+00:00,2020-07-19 20:32:04.084000+00:00,"{""timestamp"":{""$numberLong"":""1593859397971""},""plain"":2}",4780901,,Forssa,,Finland,30100,FI,Forssa,60.814467,23.642263,ALIENS,XerPii,1.0
65,65,65,ObjectId(5c223654816b24316359cb78),"CA13, Poptún, Guatemala",,16329705,-89426317,Iglesia Mormones Poptun Petén,_NEUTRAL_,2020-07-19 18:31:53.059000+00:00,2020-07-19 18:31:53.059000+00:00,"{""timestamp"":{""$numberLong"":""1567105629632""},""plain"":5}",6078138,Canchacan,,,Guatemala,,GT,Canchacan,16.329705,-89.426317,ALIENS,ANETTESISY,1.0
66,66,66,ObjectId(5edc0288f7064100f45b921e),"201, S Howard St, Alturas, Modoc County, California, 96101, USA",,41483240,-120543602,Old Miller/Arena Blacksmith,_NEUTRAL_,2020-07-19 02:44:15.825000+00:00,2020-07-19 02:44:15.825000+00:00,,12128319,Alturas,,,United States of America,96101,US,Alturas,41.48324,-120.543602,MISSING,,0.0
67,67,67,ObjectId(5c756bef596fdafe8632745b),"205 Kagamiyoshihara, Kōchi-shi, Kōchi-ken 781-3108, Japan",,33639300,133426731,国見山(雪光山)の大黒様,suika5,2019-11-04 02:44:24+00:00,2020-07-18 04:38:52.944000+00:00,"{""timestamp"":{""$numberLong"":""1572835464975""},""plain"":2}",8079442,,,Kochi,Japan,780-8571,JP,Kochi,33.6393,133.426731,RESISTANCE,Wogna,7.0
68,68,68,ObjectId(5c918f74347474b1b8ac6ca8),"Tarpenbekstraße 107, 20251 Hamburg, Germany",Diese Löcher kann man benutzen um seinen eigenen Ton zu finden,53598409,9981817,Summlöcher,miraculorum,2020-06-01 13:45:54+00:00,2020-07-19 21:02:31.243000+00:00,"{""timestamp"":{""$numberLong"":""1592770294074""},""plain"":1}",8321730,,,Hamburg,Germany,20251,DE,Hamburg,53.598409,9.981817,RESISTANCE,treelo,1.0
69,69,69,ObjectId(5c22369d816b2431636836cc),"Fermata Provvisoria, 53036 Poggibonsi Province of Siena, Italy",,43467930,11154286,Monumento,_NEUTRAL_,2020-07-18 09:01:22.422000+00:00,2020-07-18 09:01:22.422000+00:00,"{""timestamp"":{""$numberLong"":""1586611054067""},""plain"":1}",6987849,,Poggibonsi,,Italy,53036,IT,Poggibonsi,43.46793,11.154286,RESISTANCE,paoletto619,2.0
70,70,70,ObjectId(5e8f013e402e17f77194c59e),"Karola Olszewskiego 2, 33-332 Kraków, Poland",,50060492,19933643,Karol Olszewski żył i pracował w tym domu,Ant3n4,2020-07-15 17:57:03+00:00,2020-07-18 10:14:59.001000+00:00,"{""timestamp"":{""$numberLong"":""1594835823906""},""plain"":1}",11278915,,,Krakow,Poland,31-007,PL,Krakow,50.060492,19.933643,MISSING,,0.0
71,71,71,ObjectId(5c22362f816b24316351a0fc),"1 Siskin Dr, Chattanooga, TN 37403, USA",,35050377,-85291804,Caring People Changing Lives,_NEUTRAL_,2020-07-19 11:01:58.717000+00:00,2020-07-19 11:01:58.717000+00:00,"{""timestamp"":{""$numberLong"":""1581871019722""},""plain"":1}",5561695,,,Chattanooga,United States of America,37403,US,Chattanooga,35.050377,-85.291804,RESISTANCE,WhiteEyebrow,1.0
72,72,72,ObjectId(5c2235c0816b243163369911),"Hochfeldstraße 45, 86159 Augsburg, Germany",,48353397,10898410,Rosenengel,short0r,2020-06-29 15:16:12+00:00,2020-07-17 10:03:16.067000+00:00,"{""timestamp"":{""$numberLong"":""1594096433761""},""plain"":5}",3846600,,,Augsburg,Germany,86159,DE,Augsburg,48.353397,10.89841,ALIENS,Urteilchen,1.0
73,73,73,ObjectId(5ef1245bf7064100f4e82214),"Emek Hefer Regional Council, Center District, no, Israel",,32329278,34968683,The Alexander river - the Kedem section,_NEUTRAL_,2020-07-18 08:29:33.087000+00:00,2020-07-18 08:29:33.087000+00:00,,12303379,,,Emek Hefer Regional Council,Israel,,IL,Emek Hefer Regional Council,32.329278,34.968683,MISSING,,0.0
74,74,74,ObjectId(5c223568816b243163202af2),"Chaikovs'ka Street, 16, Kharkiv, Kharkiv Oblast, Ukraine",Композитор ,50004265,36254537,Mem Tab Бибик Валентин ,_NEUTRAL_,2020-07-19 03:22:52.614000+00:00,2020-07-19 03:22:52.614000+00:00,"{""timestamp"":{""$numberLong"":""1593237636762""},""plain"":5}",2421282,,,Kharkiv,Ukraine,61024,UA,Kharkiv,50.004265,36.254537,ALIENS,STRlX,1.0
75,75,75,ObjectId(5c22352c816b2431630ef858),"Møllendalsveien 60Q, 5009 Bergen, Norway",Fontene i tilknyttning til det nye park og rekreasjonanlegget på Møllendalsalmenningen. Ferdigstilt i slutten av April 2018,60379908,5351355,Fontene Møllendal,hilmenator,2020-07-15 21:02:54+00:00,2020-07-18 13:41:46.860000+00:00,"{""timestamp"":{""$numberLong"":""1594846964348""},""plain"":3}",1326713,Gyldenpris,,Bergen,Norway,5009,NO,Bergen,60.379908,5.351355,ALIENS,agurkolat,1.0
76,76,76,ObjectId(5de4b6291d69b2b9be25be89),"West Street, Elgin, Fayette County, Iowa, 52141, USA",Place of worship of Jesus!,42957487,-91646515,Elgin First Baptist Church,_NEUTRAL_,2020-07-19 00:39:41.672000+00:00,2020-07-19 00:39:41.673000+00:00,{},10107726,Elgin,,,United States of America,52141,US,Elgin,42.957487,-91.646515,MISSING,,0.0
77,77,77,ObjectId(5c22350b816b243163046a5c),"8939-9007 Schofield Avenue, Ringle, WI 54471, USA",Church,44896984,-89501879,Highland Community Church,_NEUTRAL_,2020-07-17 20:58:12.573000+00:00,2020-07-17 20:58:12.573000+00:00,"{""timestamp"":{""$numberLong"":""1577311336255""},""plain"":2}",654980,Village of Weston,,,United States of America,54471,US,Village of Weston,44.896984,-89.501879,RESISTANCE,DukeVader,1.0
78,78,78,ObjectId(5d6cd8af6fa68975139cf60a),"United States of America, Commonwealth of Virginia, Madison County",Trailmarker ,38518826,-78435625,Story Of The Forest Nature Trail,_NEUTRAL_,2020-07-17 14:29:27.364000+00:00,2020-07-17 14:29:27.364000+00:00,"{""timestamp"":{""$numberLong"":""1490000000000""},""plain"":2}",9260135,,,,United States of America,,US,,38.518826,-78.435625,RESISTANCE,GeekyTreeLover,1.0
79,79,79,ObjectId(5c223574816b243163238532),"Ya'akov Klivanov Street 25, Haifa, Israel",,32792358,35011313,Center of Neve,_NEUTRAL_,2020-03-01 21:47:42.990000+00:00,2020-03-02 22:18:55.121000+00:00,"{""timestamp"":{""$numberLong"":""1578662607152""},""plain"":2}",2634571,,,,Israel,no,IL,,32.792358,35.011313,ALIENS,Saggiehaim,1.0
80,80,80,ObjectId(5c2235de816b2431633e522c),"Avenida Maria Lamas 14, 2775 Parede, Portugal",Writer and playwright. ,38702901,-9361076,Rua João Villaret,_NEUTRAL_,2020-07-19 18:39:29.310000+00:00,2020-07-19 18:39:29.310000+00:00,"{""timestamp"":{""$numberLong"":""1583182748173""},""plain"":4}",4338696,,,Carcavelos e Parede,Portugal,2775-079,PT,Carcavelos e Parede,38.702901,-9.361076,RESISTANCE,ZeCryptic,1.0
81,81,81,ObjectId(5c2234fc816b243163ff41ee),"1394 Cuernavaca Circulo, Mountain View, CA 94040, USA",Kids play area at cuernavaca,37371945,-122063203,Flower Bench,_NEUTRAL_,2020-07-19 02:22:46.445000+00:00,2020-07-19 02:22:46.445000+00:00,"{""timestamp"":{""$numberLong"":""1570049431107""},""plain"":1}",326816,,,Mountain View,United States of America,94040,US,Mountain View,37.371945,-122.063203,ALIENS,disha,1.0
82,82,82,ObjectId(5df508d11d69b2b9be8ba4d3),"Praça Cultural 25, 3080-456 Buarcos, Portugal","P'la vida fora, num anseio, ao longe, o mar me tenta de aventura e sonhos.",40166999,-8884971,P'la vida fora,jpsf1992,2020-07-11 21:24:49+00:00,2020-07-19 14:41:42.531000+00:00,"{""timestamp"":{""$numberLong"":""1594502689707""},""plain"":1}",10255159,,,Buarcos e São Julião,Portugal,3080-229,PT,Buarcos e São Julião,40.166999,-8.884971,MISSING,,0.0
83,83,83,ObjectId(5c22354d816b24316318491a),"Rue de Reichstett, 67800 Bischheim, France",,48616602,7734659,Église Du Christ-Roi,pelicanSH,2020-06-22 22:14:49+00:00,2020-07-17 13:10:41.710000+00:00,"{""timestamp"":{""$numberLong"":""1594339164946""},""plain"":4}",1920386,,Bischheim,,France,67800,FR,Bischheim,48.616602,7.734659,ALIENS,Manolita,1.0
84,84,84,ObjectId(5c22359d816b2431632e83d8),"Hammerbachgasse 26, 2700 Wiener Neustadt, Austria",,47820817,16238726,Cave Canem Mosaic,IrrwischTV,2020-07-14 18:22:15+00:00,2020-07-20 04:02:58.485000+00:00,"{""timestamp"":{""$numberLong"":""1594750986714""},""plain"":4}",3334474,,Wiener Neustadt,Gemeinde Wiener Neustadt,Austria,2700,AT,Gemeinde Wiener Neustadt,47.820817,16.238726,ALIENS,l4lxAnd3rl,2.0
85,85,85,ObjectId(5c223596816b2431632ce0c9),"2062 E Maple St, North Canton, OH 44721, USA",,40874940,-81369468,Walsh University,_NEUTRAL_,2020-07-19 16:30:18.626000+00:00,2020-07-19 16:30:18.626000+00:00,"{""timestamp"":{""$numberLong"":""1590452385139""},""plain"":2}",3230545,,,North Canton,United States of America,44720,US,North Canton,40.87494,-81.369468,RESISTANCE,bluegayavenger,1.0
86,86,86,ObjectId(5c22354a816b243163176f18),"Rua Doutor Wolgrand Junqueira Ferreira, 114 - Centro, Águas da Prata - SP, 13890-000, Brazil",,-21935806,-46714977,São Paulo,LukeAlvez,2020-06-08 22:02:30+00:00,2020-07-19 03:23:52.139000+00:00,"{""timestamp"":{""$numberLong"":""1591653842936""},""plain"":5}",1865964,Águas da Prata,,,Brazil,13890-000,BR,Águas da Prata,-21.935806,-46.714977,ALIENS,Flyingfenix,1.0
87,87,87,ObjectId(5e578c219902bd460dfd0107),"Victoria Bay 5, Victoria, Malta",Official Inauguration of Victoria Playing Field by Victoria Mayor Samuel Azzopardi on 21st September 2018 (Independence Day),36043523,14240937,Inauguration Plaque of Victoria Playing Field,MikeCZ,2020-07-14 10:53:28+00:00,2020-07-19 21:03:04.098000+00:00,"{""timestamp"":{""$numberLong"":""1594724000958""},""plain"":3}",10894623,,,Victoria,Malta,VCT 1016,MT,Victoria,36.043523,14.240937,MISSING,,0.0
88,88,88,ObjectId(5c223667816b2431635d7f80),"270 Brooks Street, Laguna Beach, CA 92651, USA",,33533628,-117775984,Seashells Mosaic Art,_NEUTRAL_,2020-07-19 07:45:30.150000+00:00,2020-07-19 07:45:30.150000+00:00,"{""timestamp"":{""$numberLong"":""1583550689256""},""plain"":1}",6311110,,Laguna Beach,,United States of America,92651,US,Laguna Beach,33.533628,-117.775984,RESISTANCE,CalmAV,1.0
89,89,89,ObjectId(5ea85a5e04dea7bd5714b379),"Himamaylan, Negros Occidental, Western Visayas, Philippines",,10093957,122870398,Iglesia ni Cristo Church,_NEUTRAL_,2020-07-17 10:21:18.628000+00:00,2020-07-17 10:21:18.628000+00:00,,11800281,,,Himamaylan,Philippines,,PH,Himamaylan,10.093957,122.870398,MISSING,,0.0
90,90,90,ObjectId(5e8f7306402e17f7713120fe),"Rua Ignácio Limas, 222 - Jardim Herculano, São Paulo - SP, 04920-050, Brazil",,-23691885,-46757461,Grafite Amigos Do Herculano,GrandsEd,2020-07-02 10:19:44+00:00,2020-07-19 20:41:35.310000+00:00,"{""timestamp"":{""$numberLong"":""1594721907994""},""plain"":4}",11285701,,,São Paulo,Brazil,04920050,BR,São Paulo,-23.691885,-46.757461,MISSING,,0.0
91,91,91,ObjectId(5c2236a5816b2431636a6c4b),"Bonneviole, 46130 Prudhomat, France",Centre administratif,44897915,1814178,Mairie De Prudhomat ,_NEUTRAL_,2020-07-19 22:16:48.494000+00:00,2020-07-19 22:16:48.494000+00:00,"{""timestamp"":{""$numberLong"":""1592923264454""},""plain"":2}",7128653,Prudhomat,,,France,46130,FR,Prudhomat,44.897915,1.814178,RESISTANCE,schizoo23,1.0
92,92,92,ObjectId(5c2235fe816b2431634647b7),"Р36, Chudovo, Novgorod Oblast, Russia",,59122614,31679069,Вокзал ЖД станции Чудово.,Alekcindr,2020-04-05 04:25:33+00:00,2020-07-18 12:51:30.977000+00:00,"{""timestamp"":{""$numberLong"":""1586060733306""},""plain"":2}",4843957,,Chudovo,,Russia,174210,RU,Chudovo,59.122614,31.679069,RESISTANCE,ZAV,2.0
93,93,93,ObjectId(5c223550816b243163196fc9),"Speyerbachweg 11, 67259 Beindersheim, Germany",Spielplatz mit Holzfestung ,49558991,8329008,Spielplatz Herman Peter Anlage ,Nasgorian,2020-07-03 05:52:58+00:00,2020-07-18 05:16:13.779000+00:00,"{""timestamp"":{""$numberLong"":""1593755578788""},""plain"":2}",1993642,Beindersheim,,,Germany,67259,DE,Beindersheim,49.558991,8.329008,ALIENS,ByleistStorm,1.0
94,94,94,ObjectId(5ce6b8772a6b0028bad72a2d),"Av. Angélica, 77 - Santa Cecilia, São Paulo - SP, 01211-100, Brazil",É de uma caixa d’agua que ela se alimenta. O Grafite só é visto na parte superior do elevado.,-23534762,-46653572,Grafite Florescer,gilhs,2020-07-19 13:41:53+00:00,2020-07-19 13:54:24.198000+00:00,"{""timestamp"":{""$numberLong"":""1595166122879""},""plain"":4}",8665717,,,São Paulo,Brazil,01228-000,BR,São Paulo,-23.534762,-46.653572,RESISTANCE,MiniBush,1.0
95,95,95,ObjectId(5c223661816b2431635c7ab1),"No. 89, Section 2, Xi'an Street, Beitou District, Taipei City, Taiwan 112",,25117741,121513138,鄉間小道,rightfeet,2020-06-26 13:24:46+00:00,2020-07-19 05:11:51.929000+00:00,"{""timestamp"":{""$numberLong"":""1594897817091""},""plain"":1}",6246191,Qiyan,,,Taiwan,11265,TW,Qiyan,25.117741,121.513138,ALIENS,LilyWhite,1.0
96,96,96,ObjectId(5c2234f7816b243163fe0385),"65 Rue du Breuil, 17300 Rochefort, France",Tatoo artistiques,45945972,-967951,Vitrine de tatouages,_NEUTRAL_,2020-07-18 07:05:10.181000+00:00,2020-07-18 07:05:10.181000+00:00,"{""timestamp"":{""$numberLong"":""1589438188911""},""plain"":1}",247345,,Rochefort,,France,17300,FR,Rochefort,45.945972,-0.967951,RESISTANCE,refr4ctaire,1.0
97,97,97,ObjectId(5efd7ce8f7064100f48f29b8),"Donnersbergring 45, 64295 Darmstadt, Germany",,49858053,8643484,Spielplatz mit Doppelschaukel und Sandkasten,Heilsbringer,2020-07-18 14:07:41+00:00,2020-07-18 14:37:59.475000+00:00,"{""timestamp"":{""$numberLong"":""1595081261649""},""plain"":2}",12392030,,,Darmstadt,Germany,64295,DE,Darmstadt,49.858053,8.643484,MISSING,,0.0
98,98,98,ObjectId(5c223631816b243163520452),"Otto Brozovs'koho St, 58, Kryvyi Rih, Dnipropetrovsk Oblast, Ukraine, 50000",Памяти воина-интернационалиста,47911922,33404345,Борец Александр,Medik9518,2020-07-03 08:54:56+00:00,2020-07-18 12:27:09.793000+00:00,"{""timestamp"":{""$numberLong"":""1593767086595""},""plain"":1}",5586060,,,Kryvyi Rih,Ukraine,50000-50479,UA,Kryvyi Rih,47.911922,33.404345,ALIENS,BonaDeea,1.0
99,99,99,ObjectId(5c5f68083bc31b973af72a32),"2778 S Street Rd, Scipio Center, NY 13147, USA","Farms of the Cayugas, before revolution: here white settlers found cleared and cultivated fields, villages, and forts ",42732737,-76554459,Indian Fields,_NEUTRAL_,2020-07-19 08:51:04.456000+00:00,2020-07-19 08:51:04.456000+00:00,"{""timestamp"":{""$numberLong"":""1567383058444""},""plain"":3}",7854646,,,,United States of America,13021,US,,42.732737,-76.554459,ALIENS,CatrpilrQueen,1.0
100,100,100,ObjectId(5e4b9fb702ce99e0d88cdcb2),"Thung Song, Nakhon Si Thammarat Province, Thailand",,8161146,99729800,อาคารเอนกประสงค์ไสใหญ่ 70 ปี,_NEUTRAL_,2020-07-19 06:08:30.746000+00:00,2020-07-19 06:08:30.746000+00:00,{},10828541,,Thung Song,Nakhon Si Thammarat,Thailand,,TH,Nakhon Si Thammarat,8.161146,99.7298,MISSING,,0.0
101,101,101,ObjectId(5c2234ee816b243163fb3316),"Schieferbergstraße 33, 63584 Gründau, Germany",Twinning arrangement stone of the towns Niedergründau and Lausonne,50213097,9109743,Partnership,Miike14,2020-07-08 09:42:43+00:00,2020-07-18 20:53:00.305000+00:00,"{""timestamp"":{""$numberLong"":""1594201363027""},""plain"":2}",68810,,,,Germany,63584,DE,,50.213097,9.109743,RESISTANCE,BlueKnightOne,1.0
102,102,102,ObjectId(5c22356b816b24316320d95e),"2 Chome-139 Sugukita, Kasuga-shi, Fukuoka-ken 816-0864, Japan","
",33543211,130444065,虚空蔵菩薩,mikkun7485,2020-02-29 05:13:13+00:00,2020-07-19 17:07:39.133000+00:00,"{""timestamp"":{""$numberLong"":""1593731141210""},""plain"":6}",2464254,,,Kasuga,Japan,812-0894,JP,Kasuga,33.543211,130.444065,RESISTANCE,ckoya,2.0
103,103,103,ObjectId(5c223616816b2431634c0324),"375 Howland Avenue, River Edge, NJ 07661, USA",,40922201,-74048797,Temple Avodat Shalom,mombat35,2020-05-13 11:50:51+00:00,2020-07-18 03:22:38.595000+00:00,"{""timestamp"":{""$numberLong"":""1591786184917""},""plain"":1}",5208231,,River Edge,,United States of America,07661,US,River Edge,40.922201,-74.048797,RESISTANCE,niceguyted,1.0
104,104,104,ObjectId(5c22369c816b24316367f987),"Stationsstraat 225, 8850 Ardooie, Belgium",Een groot kanon op een grasveld.,50991136,3205088,Kanon Ardooie,_NEUTRAL_,2020-07-17 13:56:00.301000+00:00,2020-07-17 13:56:00.301000+00:00,"{""timestamp"":{""$numberLong"":""1585326214338""},""plain"":2}",6972560,Ardooie,,,Belgium,8850,BE,Ardooie,50.991136,3.205088,ALIENS,Reveaper,1.0
105,105,105,ObjectId(5c2235a9816b243163314ed1),"Unter der Kirche 5, 1110 Vienna, Austria",,48170746,16424253,Satorina Engel,_NEUTRAL_,2020-07-17 14:18:06.403000+00:00,2020-07-17 14:18:06.403000+00:00,"{""timestamp"":{""$numberLong"":""1577281568947""},""plain"":1}",3509259,,,Vienna,Austria,1110,AT,Vienna,48.170746,16.424253,RESISTANCE,geronniemo,1.0
106,106,106,ObjectId(5cbe40e41c8495436b010ff2),"Calle Beagle 2940, Vallenar, Región de Atacama, Chile",,-28579966,-70742510,Mirador José Simon,_NEUTRAL_,2020-07-17 23:14:41.307000+00:00,2020-07-17 23:14:41.307000+00:00,"{""timestamp"":{""$numberLong"":""1590166095398""},""plain"":1}",8505395,,,Vallenar,Chile,1611258,CL,Vallenar,-28.579966,-70.74251,ALIENS,luchowolf,1.0
107,107,107,ObjectId(5c221fc5816b243163f2e5ec),"No. 30, Zhēnlǐ Street, Danshui District, New Taipei City, Taiwan 251",,25175786,121434935,真理大學石碑 美苑,_NEUTRAL_,2020-07-20 01:17:26.631000+00:00,2020-07-20 01:17:26.631000+00:00,"{""timestamp"":{""$numberLong"":""1586242785485""},""plain"":1}",6927,Danhai,,,Taiwan,251,TW,Danhai,25.175786,121.434935,RESISTANCE,PsyChoFaker666,3.0
108,108,108,ObjectId(5c223583816b243163277272),"Watertorenstraat 15, Oosteind, The Netherlands",,51648404,4929417,Mariabeeld Watertorenstraat - Dongen,_NEUTRAL_,2020-07-20 00:24:35.900000+00:00,2020-07-20 00:24:35.900000+00:00,"{""timestamp"":{""$numberLong"":""1592267370225""},""plain"":2}",2884751,,Dongen,,The Netherlands,4909BL,NL,Dongen,51.648404,4.929417,ALIENS,desmurfin,2.0
109,109,109,ObjectId(5c2235e9816b24316340eb18),"107 Cotton Street, Vienna, GA 31092, United States",This is the Vienna Cultural Center. Originally it served as an Episcopal church established in 1903.,32090308,-83794344,Vienna Cultural Center,_NEUTRAL_,2020-07-18 14:25:49.084000+00:00,2020-07-18 14:25:49.084000+00:00,"{""timestamp"":{""$numberLong"":""1582656457532""},""plain"":3}",4503130,Vienna,,,United States of America,31902,US,Vienna,32.090308,-83.794344,ALIENS,GeorgiaBreeze,1.0
110,110,110,ObjectId(5c7c01c75a73dc098bd16628),"R. Sobrinho, 1, Juramento - MG, 39590-000, Brazil",Monumento com trechos da história do município,-16846597,-43587838,Memorial Da Fundação De Juramento MG,_NEUTRAL_,2020-07-19 11:59:37.460000+00:00,2020-07-19 11:59:37.461000+00:00,"{""timestamp"":{""$numberLong"":""1563018436621""},""plain"":4}",8251702,Juramento,,,Brazil,,BR,Juramento,-16.846597,-43.587838,ALIENS,maceds,1.0
111,111,111,ObjectId(5c223698816b243163670cc1),"40-54 Rue de la Mairie, 01250 Revonnas, France",,46162496,5331764,Croix Et Fontaine,_NEUTRAL_,2020-07-19 07:18:26.482000+00:00,2020-07-19 07:18:26.482000+00:00,"{""timestamp"":{""$numberLong"":""1571347293879""},""plain"":2}",6913806,Revonnas,,,France,01250,FR,Revonnas,46.162496,5.331764,ALIENS,avadeka,1.0
112,112,112,ObjectId(5c2235d0816b2431633ac7c3),"Wolterstraße 1, 15366 Neuenhagen, Germany",,52520984,13700223,Graffitti Blumenhaus Neuenhagen,vitus365,2020-07-02 18:35:41+00:00,2020-07-19 22:35:57.676000+00:00,"{""timestamp"":{""$numberLong"":""1593714941389""},""plain"":2}",4113082,,Neuenhagen bei Berlin,,Germany,15366,DE,Neuenhagen bei Berlin,52.520984,13.700223,ALIENS,druffy,1.0
113,113,113,ObjectId(5c22351e816b2431630a4ebf),"Kuratorvägen 50, 907 36 Umeå, Sweden","Offentlig lekplats med flertalet gungor, stor sandlåda samt ett stort klättertorn. ",63816230,20319919,Kuratorvägens Lekplats ,_NEUTRAL_,2020-07-19 16:14:51.766000+00:00,2020-07-19 16:14:51.766000+00:00,"{""timestamp"":{""$numberLong"":""1588667951056""},""plain"":6}",1030525,,,Umeå,Sweden,907 03,SE,Umeå,63.81623,20.319919,ALIENS,karben94,1.0
114,114,114,ObjectId(5c22361a816b2431634cc759),"624 York St NE, Aiken, SC 29801, USA",,33569574,-81712062,New Creation Christian Church,_NEUTRAL_,2020-07-19 13:41:09.602000+00:00,2020-07-19 13:41:09.602000+00:00,"{""timestamp"":{""$numberLong"":""1587064724447""},""plain"":1}",5255627,,,Aiken,United States of America,29801,US,Aiken,33.569574,-81.712062,ALIENS,DrBrownFinger,1.0
115,115,115,ObjectId(5c2236a1816b243163693a95),"Unnamed Road, Yaroslavskaya oblast', Russia, 150512",,57853482,40048215,Толбухин Ф.И.,_NEUTRAL_,2020-07-19 17:55:15.091000+00:00,2020-07-19 17:55:15.091000+00:00,"{""timestamp"":{""$numberLong"":""1587635591661""},""plain"":1}",7052741,Толбухино,,,Russia,150512,RU,Толбухино,57.853482,40.048215,RESISTANCE,Ascet76,1.0
116,116,116,ObjectId(5dea624b1d69b2b9bec3a658),"19 Chome-3-50 Tsukisamu Higashi 1 Jo, Toyohira Ward, Sapporo, Hokkaido 062-0051, Japan",北海道地域における水田作、畑作、酪農の先導的な大規模生産システムの開発、夏季低温で冬季厳寒という環境を克服する研究開発など、地域農業の発展に貢献する試験研究に取り組んでいます。（HPより）,43011545,141420372,北海道農業研究センター正門,sassy0517,2020-07-04 10:37:31+00:00,2020-07-18 21:35:04.736000+00:00,"{""timestamp"":{""$numberLong"":""1594431537639""},""plain"":1}",10156428,,,Sapporo,Japan,062-0043,JP,Sapporo,43.011545,141.420372,MISSING,,0.0
117,117,117,ObjectId(5cc5a75d104fcee66d3d0aae),"De Boomgaard 5, 9408 JA Assen, Netherlands","Sporthal van de gemeente Assen waar je onder andere kunt basketballen, zaalvoetballen en badmintonnen. ",53004289,6506915,Sporthal De Boomgaard ,g1mlie,2020-03-18 22:19:04+00:00,2020-05-03 02:30:21.444000+00:00,"{""timestamp"":{""$numberLong"":""1586188261945""},""plain"":4}",8530860,,,Assen,The Netherlands,9408JA,NL,Assen,53.004289,6.506915,ALIENS,g1mlie,1.0
118,118,118,ObjectId(5c2235e2816b2431633f4849),"Cowles Drive, Des Moines International Airport (DSM), Des Moines, IA 50321, USA",,41533389,-93648189,A History Of The Des Moines International Airport,_NEUTRAL_,2020-07-19 18:02:09.582000+00:00,2020-07-19 18:02:09.582000+00:00,"{""timestamp"":{""$numberLong"":""1589369491325""},""plain"":3}",4399269,,,Des Moines,United States of America,50321,US,Des Moines,41.533389,-93.648189,RESISTANCE,AFLSlasher,1.0
119,119,119,ObjectId(5c223642816b24316356103a),"Buena Vista, IA, United States",,41608168,-92904997,Killduff Post Office,_NEUTRAL_,2020-07-19 18:01:47.907000+00:00,2020-07-19 18:01:47.907000+00:00,"{""timestamp"":{""$numberLong"":""1538412691311""},""plain"":1}",5841915,,,,United States of America,,US,,41.608168,-92.904997,MISSING,,0.0
120,120,120,ObjectId(5c31ffedc4e2c8377de738c4),"Fyrvägen 37, 239 40 Falsterbo, Sweden",,55383276,12814929,Skåneleden SL5,Fairlight166,2020-07-02 08:46:36+00:00,2020-07-19 17:36:51.125000+00:00,"{""timestamp"":{""$numberLong"":""1593679596453""},""plain"":2}",7451019,,Skanör med Falsterbo,,Sweden,239 40,SE,Skanör med Falsterbo,55.383276,12.814929,RESISTANCE,espresso222,1.0
121,121,121,ObjectId(5c223648816b24316356f0e8),"Tamalpais Terrace, University of San Francisco, University of San Francisco - Lone Mountain Campus, San Francisco, CA 94118, USA",,37778534,-122448910,USF School of Education Sign,arucarius,2020-06-23 13:17:22+00:00,2020-07-19 23:29:30.769000+00:00,"{""timestamp"":{""$numberLong"":""1594732466416""},""plain"":4}",5897296,,,San Francisco,United States of America,94117,US,San Francisco,37.778534,-122.44891,ALIENS,FredSmith,1.0
122,122,122,ObjectId(5c22363c816b24316354dff8),"96-102 Donegall Street, Belfast BT1, UK",,54603877,-5930520,Redeemer Central,DaddyBaz,2020-07-15 13:36:16+00:00,2020-07-17 15:03:31.338000+00:00,"{""timestamp"":{""$numberLong"":""1594996436597""},""plain"":1}",5767376,,,Belfast,United Kingdom,BT1 2FJ,GB,Belfast,54.603877,-5.93052,MISSING,,0.0
123,123,123,ObjectId(5c223652816b243163595163),"Avenida Doutor Francisco Pires Gonçalves, 4705 Braga, Portugal",Altos relevos na fachada principal do Estádio 1° Maio,41539650,-8421244,Esculturas Do Estádio 1°de Maio,agentphy,2020-07-18 18:51:37+00:00,2020-07-18 19:19:31.293000+00:00,"{""timestamp"":{""$numberLong"":""1595098307224""},""plain"":1}",6047960,,,São José de São Lázaro e São João do Souto,Portugal,4711-954,PT,São José de São Lázaro e São João do Souto,41.53965,-8.421244,RESISTANCE,alexpain,1.0
124,124,124,ObjectId(5c223548816b243163170520),"2 Rue des Luisettes, 49350 Le Thoureil, France",Chapelle atypique,47356012,-253226,Chapelle De Bessé,Tchouhacker,2020-05-17 14:04:33+00:00,2020-07-19 03:08:04.509000+00:00,"{""timestamp"":{""$numberLong"":""1589724389145""},""plain"":5}",1839547,,,Gennes-Val-de-Loire,France,49350,FR,Gennes-Val-de-Loire,47.356012,-0.253226,RESISTANCE,tomatocatchup,1.0
125,125,125,ObjectId(5c2235a1816b2431632f50f2),"Dominee Prinsweg 4, 8161 CJ Epe, Netherlands",,52347761,5989498,Yarden Huis,_NEUTRAL_,2020-07-17 14:55:41.980000+00:00,2020-07-17 14:55:41.980000+00:00,"{""timestamp"":{""$numberLong"":""1589739738035""},""plain"":3}",3384888,,Epe,,The Netherlands,8161CJ,NL,Epe,52.347761,5.989498,RESISTANCE,NecroManiac13,1.0
126,126,126,ObjectId(5c22367d816b24316361f197),"4063, 586 01 Jihlava, Czechia",,49366091,15548348,Křížek Vysoká,_NEUTRAL_,2020-07-18 09:35:29.548000+00:00,2020-07-18 09:35:29.549000+00:00,"{""timestamp"":{""$numberLong"":""1590229372516""},""plain"":4}",6592010,,,Jihlava,Czech Republic,58835,CZ,Jihlava,49.366091,15.548348,RESISTANCE,MiraP,1.0
127,127,127,ObjectId(5d646b3b6fa68975138897cf),"пр. Энгельса, 109к3, Sankt-Peterburg, Russia, 194354",,60032747,30324565,Тортуга,Bumbarush,2020-07-12 14:01:58+00:00,2020-07-18 20:09:54.681000+00:00,"{""timestamp"":{""$numberLong"":""1595102320477""},""plain"":5}",9222978,,,округ Сосновское,Russia,194354,RU,округ Сосновское,60.032747,30.324565,RESISTANCE,DarthStap,1.0
128,128,128,ObjectId(5c2235b0816b2431633319a9),"Oyashiki-27-10 Kaidecho, Muko, Kyoto Prefecture, Japan",,34943936,135706383,北真経寺 冠山北門,_NEUTRAL_,2020-07-20 02:41:48.800000+00:00,2020-07-20 02:41:48.800000+00:00,"{""timestamp"":{""$numberLong"":""1587886086762""},""plain"":2}",3623698,,,Muko,Japan,6170006,JP,Muko,34.943936,135.706383,RESISTANCE,04dnkn,1.0
129,129,129,ObjectId(5c22352f816b2431630faf4f),"5940 Massachusetts Avenue, New Port Richey, FL 34652, USA",,28258372,-82715957,Fellowship Baptist Church ,NorristicTruth,2020-06-30 13:40:53+00:00,2020-07-19 17:45:51.264000+00:00,"{""timestamp"":{""$numberLong"":""1594515222704""},""plain"":1}",1371850,,,,United States of America,34652,US,,28.258372,-82.715957,ALIENS,DivineSeer,1.0
130,130,130,ObjectId(5ea2e25a402e17f7712a2e2b),"Cl. 20 #52-25, Medellín, Antioquia, Colombia",,6221685,-75580293,street art,_NEUTRAL_,2020-07-20 02:00:27.287000+00:00,2020-07-20 02:00:27.287000+00:00,"{""timestamp"":{""$numberLong"":""1588335379276""},""plain"":3}",11744007,,,Medellín,Colombia,0500,CO,Medellín,6.221685,-75.580293,MISSING,,0.0
131,131,131,ObjectId(5c22361a816b2431634ccfda),"NCR754, Glasgow G13 4TE, UK","The 35th instalment of the set of locks along the Forth and Clyde Canal, which was opened in 1790. ",55899481,-4369302,Lock 35,Jdmojojojo,2020-06-27 19:39:47+00:00,2020-07-19 15:11:58.364000+00:00,"{""timestamp"":{""$numberLong"":""1593947776426""},""plain"":6}",5257712,,,,United Kingdom,G13 4TE,GB,,55.899481,-4.369302,ALIENS,resistanceToAll,1.0
132,132,132,ObjectId(5c22350c816b24316304aebe),"Prins Willem Alexanderstraat 18, 5321 SC Hedel, Netherlands",,51746894,5256597,Veertoestellen Prins Willem Alexanderstraat,Madrox77,2020-07-12 15:41:24+00:00,2020-07-17 10:07:18.225000+00:00,"{""timestamp"":{""$numberLong"":""1594568477540""},""plain"":3}",672061,,,Maasdriel,The Netherlands,5321SC,NL,Maasdriel,51.746894,5.256597,ALIENS,kozlyakin,1.0
133,133,133,ObjectId(5c223580816b24316326a8c5),"1200 Morris Turnpike, Short Hills, NJ 07078, USA",A fountain with a giant fishbowl-like structure cascading with water. Try to toss a penny from a distance and land it in the hole at the top.,40740663,-74363998,Short Hills Mall Fountain,_NEUTRAL_,2020-07-17 13:01:02.153000+00:00,2020-07-17 13:01:02.153000+00:00,"{""timestamp"":{""$numberLong"":""1583092943168""},""plain"":2}",2834507,,Millburn,,United States of America,07078,US,Millburn,40.740663,-74.363998,RESISTANCE,Psephopaiktes,2.0
134,134,134,ObjectId(5c22351e816b2431630a6a9c),"901-975 Meador Avenue, Bellingham, WA 98225, USA",,48753255,-122462950,Whatcom Creek Greenway,EldrenCoralon,2020-05-03 22:46:22+00:00,2020-07-17 17:07:40.020000+00:00,"{""timestamp"":{""$numberLong"":""1588547357910""},""plain"":1}",1037438,,,Bellingham,United States of America,98225-4236,US,Bellingham,48.753255,-122.46295,ALIENS,watchr,1.0
135,135,135,ObjectId(5cdf031821f4279aa5516649),"992 Watanukimachi, Takasaki, Gunma 370-1207, Japan",旧岩鼻火薬製造所で使われていた圧輪を模したピクニックテーブル,36298461,139080535,歴史博物館脇のピクニックテーブル,KEI11312491,2020-07-02 23:51:28+00:00,2020-07-18 13:54:16.329000+00:00,"{""timestamp"":{""$numberLong"":""1594254218961""},""plain"":4}",8632443,,,Takasaki,Japan,370-0025,JP,Takasaki,36.298461,139.080535,ALIENS,KEI11312491,1.0
136,136,136,ObjectId(5c2235fd816b24316345fce1),"A379, Plymouth, Devon PL8, UK",,50351521,-4034153,Mary Green Post Office and General Store,_NEUTRAL_,2020-07-19 00:21:02.734000+00:00,2020-07-19 00:21:02.734000+00:00,"{""timestamp"":{""$numberLong"":""1590323532136""},""plain"":1}",4825307,,,South Hams,United Kingdom,PL8 2BS,GB,South Hams,50.351521,-4.034153,RESISTANCE,woodybaz,1.0
137,137,137,ObjectId(5c2235c2816b243163374a05),"295 Nakata, Toride-shi, Ibaraki-ken 300-1533, Japan",中谷原田園都市センターの敷地内にある稲荷神社。,35909456,140108853,稲荷神社,MercuryMagic,2020-07-16 10:02:31+00:00,2020-07-19 21:51:22.986000+00:00,"{""timestamp"":{""$numberLong"":""1594893751799""},""plain"":1}",3890776,,,Toride,Japan,300-1516,JP,Toride,35.909456,140.108853,RESISTANCE,yach88,1.0
138,138,138,ObjectId(5c223636816b243163534a92),"Trat Airport (TDX), Unnamed Road, Tha Som, Khao Saming District, Trat 23150, Thailand",,12281166,102324285,Trat Airport ,_NEUTRAL_,2020-07-19 21:16:29.818000+00:00,2020-07-19 21:16:29.818000+00:00,"{""timestamp"":{""$numberLong"":""1563269890361""},""plain"":1}",5666895,,Laem Ngop,,Thailand,,TH,Laem Ngop,12.281166,102.324285,RESISTANCE,ZEU5,3.0
139,139,139,ObjectId(5c22367b816b2431636184d7),"601-613 12th Street Southwest, Roanoke, VA 24016, USA",A place of religious significance in Roanoke VA,37270554,-79962411,West End Presbyterian Church,bigcoffee,2020-04-24 21:59:00+00:00,2020-07-17 20:24:36.402000+00:00,"{""timestamp"":{""$numberLong"":""1595015795976""},""plain"":1}",6565642,,,Roanoke,United States of America,24016,US,Roanoke,37.270554,-79.962411,RESISTANCE,FrostQuake,2.0
140,140,140,ObjectId(5ea25b54402e17f7717c2b81),"Mar del Plata, Partido de General Pueyrredón, Buenos Aires, 7602, Argentina",,-38033018,-57529472,Homenaje al A.R.A. San Juan,_NEUTRAL_,2020-07-18 04:05:41.652000+00:00,2020-07-18 04:05:41.652000+00:00,,11736333,,,Mar del Plata,Argentina,,AR,Mar del Plata,-38.033018,-57.529472,MISSING,,0.0
141,141,141,ObjectId(5ea1f6f9402e17f771ffacca),"5 Sudlon, Cebu City, 6000 Cebu, Philippines",,10328888,123895919,Abacá Baking Company Wall Art,_NEUTRAL_,2020-07-17 23:18:12.736000+00:00,2020-07-17 23:18:12.737000+00:00,"{""timestamp"":{""$numberLong"":""1588334313295""},""plain"":2}",11728808,Sudlon II,,,Philippines,,PH,Sudlon II,10.328888,123.895919,MISSING,,0.0
142,142,142,ObjectId(5c223568816b243163202944),"Platz der Deutschen Einheit 1, 37269 Eschwege, Germany",,51188660,10023855,Denkmal Unteilbar,_NEUTRAL_,2020-07-19 02:06:55.857000+00:00,2020-07-19 02:06:55.857000+00:00,"{""timestamp"":{""$numberLong"":""1591904952333""},""plain"":4}",2420865,,Eschwege,,Germany,37269,DE,Eschwege,51.18866,10.023855,RESISTANCE,TLizard,2.0
143,143,143,ObjectId(5d1b8806572d3acc4fc56d67),"Pr. Marijkelaan 25, 4002 AT Tiel, Netherlands",Tennisvereniging Tiel,51892652,5422281,TC Groenendaal,Mallygos,2020-07-18 20:04:24+00:00,2020-07-18 20:19:59.958000+00:00,"{""timestamp"":{""$numberLong"":""1595102664733""},""plain"":1}",8933308,,Tiel,,The Netherlands,4002AT,NL,Tiel,51.892652,5.422281,ALIENS,howtobeagent101,1.0
144,144,144,ObjectId(5c223697816b243163669c61),"1009-1079 Opule Street, Kapolei, HI 96707, USA","
",21321918,-158093778,Kingdom Hall of Jehovah's Witnesses ,_NEUTRAL_,2020-07-19 20:16:04.792000+00:00,2020-07-19 20:16:04.792000+00:00,"{""timestamp"":{""$numberLong"":""1567573400147""},""plain"":4}",6885976,,,Kapolei,United States of America,96707,US,Kapolei,21.321918,-158.093778,RESISTANCE,BahoOtot,3.0
145,145,145,ObjectId(5dace2c0707d7a0dd3770b5c),"Slaperdijkweg, 2063 Spaarndam Gem. Haarlem, Netherlands",,52418086,4674100,Kazermat Bunker,IronSoldier030,2020-06-30 04:55:39+00:00,2020-07-19 13:51:26.687000+00:00,"{""timestamp"":{""$numberLong"":""1593492934475""},""plain"":3}",9578920,,,Haarlem,The Netherlands,2063,NL,Haarlem,52.418086,4.6741,MISSING,,0.0
146,146,146,ObjectId(5c2236aa816b2431636b86ca),"22178 Three Notch Rd, Lexington Park, MD 20653, USA", Joint Strike Fighter mural on the side of the Pax River Naval Air Museum,38275931,-76463618, Joint Strike Fighter Mural,Lagerthasword,2020-07-02 13:51:08+00:00,2020-07-19 19:36:46.278000+00:00,"{""timestamp"":{""$numberLong"":""1594050565931""},""plain"":4}",7199073,,Lexington Park,,United States of America,20653,US,Lexington Park,38.275931,-76.463618,RESISTANCE,BillzFan,1.0
147,147,147,ObjectId(5c223534816b24316310f160),"L209, 56154 Boppard, Germany",,50218703,7556679,"Holzfigur Eule am Rundwanderweg ""Drei Eichen""",xulu007,2020-06-29 17:35:49+00:00,2020-07-19 03:10:30.171000+00:00,"{""timestamp"":{""$numberLong"":""1593452149758""},""plain"":2}",1451778,,Boppard,,Germany,56154,DE,Boppard,50.218703,7.556679,RESISTANCE,Reformatio,1.0
148,148,148,ObjectId(5cbc3ede24129e8c7756a14d),"D149, 49120 Chemillé-en-Anjou, France",INRI de Saint-Lézin,47245245,-770179,INRI De Saint-Lézin,_NEUTRAL_,2020-07-19 06:24:18.354000+00:00,2020-07-19 06:24:18.354000+00:00,"{""timestamp"":{""$numberLong"":""1582721267808""},""plain"":1}",8498578,,,Chemillé-en-Anjou,France,49120,FR,Chemillé-en-Anjou,47.245245,-0.770179,ALIENS,MrlDridri,1.0
149,149,149,ObjectId(5e1d8ec31d69b2b9bea9b233),"791, Court St S, Lewisburg, Greenbrier County, West Virginia, 24901, USA","This circa 1840 building may have been built by noted Mason an architect John Weir and has operated as a restaurant, hotel, gift shop, and drugstore.",37802129,-80446621,Williams-Neely Building,_NEUTRAL_,2020-07-20 02:28:04.980000+00:00,2020-07-20 02:28:04.980000+00:00,{},10544550,,Lewisburg,,United States of America,24901,US,Lewisburg,37.802129,-80.446621,MISSING,,0.0
150,150,150,ObjectId(5c22364f816b24316358c0b7),"Kurbadstraße 16, 1100 Vienna, Austria",,48146933,16398443,Oberlaa Skulptur,_NEUTRAL_,2020-07-17 20:30:05.553000+00:00,2020-07-17 20:30:05.553000+00:00,"{""timestamp"":{""$numberLong"":""1589621613056""},""plain"":1}",6011944,,,Vienna,Austria,1100,AT,Vienna,48.146933,16.398443,MISSING,,0.0
151,151,151,ObjectId(5ee74c53f7064100f41789d0),"historischer Rennweg, Allagen, Warstein, Kreis Soest, North Rhine-Westphalia, 59581, Germany",,51460472,8261680,Hütte am Rennweg,_NEUTRAL_,2020-07-17 17:26:51.429000+00:00,2020-07-17 17:26:51.429000+00:00,,12191534,,Warstein,,Germany,59581,DE,Warstein,51.460472,8.26168,MISSING,,0.0
152,152,152,ObjectId(5d93c757707d7a0dd305ca8a),"Yala, Yala Province, 95000, Thailand",กรงนกเขายักษ์,6538696,101274093,Giant Dove Cage,_NEUTRAL_,2020-07-17 12:40:57.611000+00:00,2020-07-17 12:40:57.611000+00:00,"{""timestamp"":{""$numberLong"":""1490000000000""},""plain"":2}",9418800,,,Yala,Thailand,95000,TH,Yala,6.538696,101.274093,MISSING,,0.0
153,153,153,ObjectId(5eaaa89a04dea7bd57a257f4),"Lasudia Mori, Indore, Indore Tahsil, Indore, Madhya Pradesh, 452001, India",,22731191,75902770,United but Saprated,_NEUTRAL_,2020-07-18 03:14:54.025000+00:00,2020-07-18 03:14:54.025000+00:00,,11815374,,,Indore,India,452001,IN,Indore,22.731191,75.90277,MISSING,,0.0
154,154,154,ObjectId(5c2235b4816b24316333ef47),"123 Crestmont Road, Greene, NY 13778, USA",,42322137,-75767586,Lions Park Dedication Plaque ,_NEUTRAL_,2020-07-17 10:46:06.666000+00:00,2020-07-17 10:46:06.666000+00:00,"{""timestamp"":{""$numberLong"":""1490000000000""},""plain"":2}",3676966,Greene,,,United States of America,13778,US,Greene,42.322137,-75.767586,ALIENS,Navarath,1.0
155,155,155,ObjectId(5c622bf063c50c1d51a3ec0f),"Jl. Raya Krompeng, Kemlaten, Krompeng, Talun, Pekalongan, Jawa Tengah 51192, Indonesia",,-7005449,109729343,Masjid Pink Talun,_NEUTRAL_,2020-07-19 07:39:47.032000+00:00,2020-07-19 07:39:47.032000+00:00,"{""timestamp"":{""$numberLong"":""1592022425795""},""plain"":6}",7872534,Karangasem,,,Indonesia,,ID,Karangasem,-7.005449,109.729343,RESISTANCE,KanjengPuan,1.0
156,156,156,ObjectId(5c2236b6816b2431636dd2b5),"Linzer Straße 3, 4120 Neufelden, Austria",,48485539,14002431,Hopfenbaugenossenschaft,dunkelzahn71,2020-07-17 13:21:10+00:00,2020-07-17 13:33:15.967000+00:00,"{""timestamp"":{""$numberLong"":""1594992070534""},""plain"":2}",7345944,Neufelden,,,Austria,4120,AT,Neufelden,48.485539,14.002431,ALIENS,neum,1.0
157,157,157,ObjectId(5d5664666fa68975136ba689),"276 Sinbong-dong, Yuseong-gu, Daejeon, South Korea","나라의 통일과 번영, 부대의 무사고 안녕, 불자들의 행복을 탑 건립을 통해 발원하고자 하였다. 상층 기단이 하층 기단보다 두텁고, 하층 몸돌이 상층 몸돌보다 두터운 상승감에 모습이 돋보이는 현대식 석탑.",36414908,127334592,자운사 부처님 진신사리 삼층석탑,_NEUTRAL_,2020-07-18 03:33:16.934000+00:00,2020-07-18 03:33:16.934000+00:00,"{""timestamp"":{""$numberLong"":""1577099921155""},""plain"":2}",9163547,Sinbong-dong,,Daejeon,South Korea,34094,KR,Daejeon,36.414908,127.334592,RESISTANCE,ImproveKYH,1.0
158,158,158,ObjectId(5c223534816b243163111332),"Halasova 102, 679 71 Lysice, Czechia",,49453711,16538163,Maxi Fontánka Před Kostelem ,_NEUTRAL_,2020-07-18 09:35:08.378000+00:00,2020-07-18 09:35:08.378000+00:00,"{""timestamp"":{""$numberLong"":""1581765962768""},""plain"":5}",1460225,Lysice,,,Czech Republic,67976,CZ,Lysice,49.453711,16.538163,ALIENS,tetin83,1.0
159,159,159,ObjectId(5c223639816b243163542418),"198 South Anderson Street, Orion Township, MI 48362, USA",Who knew...,42782790,-83238682,Horseshoe Club,omnihost12,2020-07-03 14:52:08+00:00,2020-07-18 22:02:17.092000+00:00,"{""timestamp"":{""$numberLong"":""1593787928925""},""plain"":2}",5720969,Lake Orion,,,United States of America,48362,US,Lake Orion,42.78279,-83.238682,ALIENS,RazrWire,1.0
160,160,160,ObjectId(5c2235ec816b24316341631d),"Emsstraße 20, 26757 Borkum, Germany",,53578756,6670420,Querfeuer,_NEUTRAL_,2020-07-19 12:32:07.832000+00:00,2020-07-19 12:32:07.832000+00:00,"{""timestamp"":{""$numberLong"":""1591801323033""},""plain"":3}",4533072,Borkum,,,Germany,26757,DE,Borkum,53.578756,6.67042,ALIENS,abraXxl,3.0
161,161,161,ObjectId(5c418c95f9cca9d4cbadd133),"31 Waun Las, Neath SA10 7RW, UK",Local Community Hall,51671147,-3819382,Waunceirch Community Hall,_NEUTRAL_,2020-07-19 11:33:38.632000+00:00,2020-07-19 11:33:38.632000+00:00,"{""timestamp"":{""$numberLong"":""1590095842809""},""plain"":4}",7620524,Bryncoch,,,United Kingdom,SA10 7RW,GB,Bryncoch,51.671147,-3.819382,ALIENS,borninwales,1.0
162,162,162,ObjectId(5c223569816b243163205c97),"Общежитие № 4(Б.Богаткова, 63.1), Novosibirsk, Novosibirskaya oblast', Russia, 630008",,55018843,82951247,Птица В Руках,_NEUTRAL_,2020-07-20 02:18:02.475000+00:00,2020-07-20 02:18:02.475000+00:00,"{""timestamp"":{""$numberLong"":""1589979196427""},""plain"":2}",2433570,,,Novosibirsk,Russia,630000,RU,Novosibirsk,55.018843,82.951247,RESISTANCE,xamke,1.0
163,163,163,ObjectId(5c223648816b24316356f8fb),"R. Harmônia, 2-48, Matinhos - PR, 83260-000, Brazil",,-25820010,-48536389,Academia Ao Ar Livre Centro,_NEUTRAL_,2020-07-17 16:37:10.861000+00:00,2020-07-17 16:37:10.861000+00:00,"{""timestamp"":{""$numberLong"":""1576365909823""},""plain"":1}",5899317,,Matinhos,,Brazil,83260-000,BR,Matinhos,-25.82001,-48.536389,ALIENS,AsthompBr,1.0
164,164,164,ObjectId(5c2235b6816b243163348627),"13 Nishi 3 Senkita, Naganuma-chō, Yūbari-gun, Hokkaidō 069-1318, Japan",昭和十七年九月建立第七区一同,43058188,141701927,馬頭観世音,mass0007,2020-04-18 09:20:29+00:00,2020-07-18 07:41:38.036000+00:00,"{""timestamp"":{""$numberLong"":""1593934048449""},""plain"":1}",3714111,,Naganuma,,Japan,069-1317,JP,Naganuma,43.058188,141.701927,ALIENS,cymbidiumsap,1.0
165,165,165,ObjectId(5ea2c050402e17f771fc8b2e),"275, Walton Drive, Louisa, Lawrence County, Kentucky, 41230, USA",,38101732,-82622418,Southern Spoon Restaurant,_NEUTRAL_,2020-07-18 22:06:09.972000+00:00,2020-07-18 22:06:09.972000+00:00,,11742068,,,,United States of America,41230,US,,38.101732,-82.622418,MISSING,,0.0
166,166,166,ObjectId(5dfcc3e41d69b2b9beefcb8b),"114 Heaslip St, Mangerton NSW 2500, Australia","A native-animal themed children's playground at one of the Eastern parts of Mangerton Park, featuring indigenous art.",-34435112,150873777,Mangerton Park East - Playground,blueviscerator,2020-07-06 21:44:30+00:00,2020-07-20 00:19:58.337000+00:00,"{""timestamp"":{""$numberLong"":""1595073623964""},""plain"":6}",10332796,,,Wollongong,Australia,2500,AU,Wollongong,-34.435112,150.873777,MISSING,,0.0
167,167,167,ObjectId(5d9b5588707d7a0dd3462a18),"梅桥镇, Huaishang District, Bengbu City, Anhui, China",,33030181,117322037,三岔河湿地公园,_NEUTRAL_,2020-07-18 13:15:04.554000+00:00,2020-07-18 13:15:04.554000+00:00,"{""timestamp"":{""$numberLong"":""1490000000000""},""plain"":2}",9459727,,梅桥镇,,China,,CN,梅桥镇,33.030181,117.322037,MISSING,,0.0
168,168,168,ObjectId(5ef51c26f7064100f44e494b),"411 W 2nd S, Soda Springs, ID 83276, USA",,42655719,-111616352,Idaho Foundation for Parks and Lands,lawnsled,2020-07-15 05:09:56+00:00,2020-07-17 21:04:51.579000+00:00,"{""timestamp"":{""$numberLong"":""1594789796079""},""plain"":2}",12337829,,,Soda Springs,United States of America,83276,US,Soda Springs,42.655719,-111.616352,MISSING,,0.0
169,169,169,ObjectId(5e4bd1d802ce99e0d8c6cabd),"Upper Mills, Canal Side, Upper Rotcher, Kirklees, Yorkshire and the Humber, England, HD7 5HA, United Kingdom",,53621050,-1887034,The Guillotine,_NEUTRAL_,2020-07-17 15:47:00.941000+00:00,2020-07-17 15:47:00.941000+00:00,{},10832014,,,Kirklees,United Kingdom,HD7 5HA,GB,Kirklees,53.62105,-1.887034,MISSING,,0.0
170,170,170,ObjectId(5c2235ed816b24316341e79c),"23 Rue du Cimetière, 4059 Esch-sur-Alzette, Luxembourg",,49499589,5981118,Church,AHdoc,2020-06-26 18:51:16+00:00,2020-07-18 18:44:46.978000+00:00,"{""timestamp"":{""$numberLong"":""1595097134109""},""plain"":5}",4566061,,Esch-sur-Alzette,,Luxembourg,4059,LU,Esch-sur-Alzette,49.499589,5.981118,RESISTANCE,anaanis,1.0
171,171,171,ObjectId(5c223614816b2431634b6d26),"4900 Powerline Road, Oakland Park, FL 33309, USA",,26187708,-80154146,Angel's Fountain,_NEUTRAL_,2020-07-18 10:00:23.179000+00:00,2020-07-18 10:00:23.179000+00:00,"{""timestamp"":{""$numberLong"":""1574613569897""},""plain"":1}",5171238,,,,United States of America,33311,US,,26.187708,-80.154146,RESISTANCE,LionHunter,1.0
172,172,172,ObjectId(5de98e731d69b2b9bef62cb5),"Bolesława Chrobrego 14A, 58-300 Wałbrzych, Poland",plac z urządzeniami do ćwiczeń ruchowych,50771633,16275475,Plać ćwiczeniowy,Kepud,2020-07-17 14:10:49+00:00,2020-07-17 14:38:02.553000+00:00,"{""timestamp"":{""$numberLong"":""1594995049681""},""plain"":2}",10152592,,,Wałbrzych,Poland,58-300,PL,Wałbrzych,50.771633,16.275475,MISSING,,0.0
173,173,173,ObjectId(5e42dc3002ce99e0d8ca2ad1),"산3-1 Changgok-dong, Sujeong-gu, Seongnam-si, Gyeonggi-do, South Korea",,37472265,127137413,위례 휴먼링 안내판(성남1구간),HIGHLAND7497,2020-06-18 11:59:35+00:00,2020-07-18 13:58:37.803000+00:00,"{""timestamp"":{""$numberLong"":""1595079793250""},""plain"":4}",10770997,,,Seongnam-si,South Korea,13639,KR,Seongnam-si,37.472265,127.137413,MISSING,,0.0
174,174,174,ObjectId(5c2235d9816b2431633d1627),"Unnamed Road, Trypillia, Kyivs'ka oblast, Ukraine, 08722",,50115140,30754634,Жертвам репрессій,kravovich,2020-06-07 17:56:30+00:00,2020-07-17 11:21:45.968000+00:00,"{""timestamp"":{""$numberLong"":""1591552590863""},""plain"":1}",4260584,Trypillia,,,Ukraine,08722,UA,Trypillia,50.11514,30.754634,RESISTANCE,VeloDemon,1.0
175,175,175,ObjectId(5c433637f9cca9d4cb6befba),"Pruimengaarde 21, 3992 JK Houten, Netherlands",,52034834,5159216,Playground And Soccer Field,aenemrah,2020-06-07 13:20:21+00:00,2020-07-19 03:29:56.238000+00:00,"{""timestamp"":{""$numberLong"":""1593453656377""},""plain"":1}",7639748,,Houten,,The Netherlands,3992JV,NL,Houten,52.034834,5.159216,ALIENS,JiePieWie,1.0
176,176,176,ObjectId(5c5ff70d5eb74d7a800d9b35),"425 Donghu St, Fengze Qu, Quanzhou Shi, Fujian Sheng, China, 362000",,24909370,118611717,文明,zz020220,2020-07-08 15:03:40+00:00,2020-07-19 02:11:54.857000+00:00,"{""timestamp"":{""$numberLong"":""1594220620084""},""plain"":1}",7857701,,,Quanzhou,China,362000,CN,Quanzhou,24.90937,118.611717,RESISTANCE,Xinxnn,1.0
177,177,177,ObjectId(5c2236ac816b2431636bc454),"Naniwa-suji, 1 Chome-1 Fukushima, Fukushima-ku, Ōsaka-shi, Ōsaka-fu 553-0003, Japan",,34693647,135488133,ABC Hall,RedShirtBuffalo,2020-07-14 02:57:51+00:00,2020-07-19 12:37:11.946000+00:00,"{""timestamp"":{""$numberLong"":""1594696101517""},""plain"":4}",7214451,,,Osaka,Japan,553-0003,JP,Osaka,34.693647,135.488133,ALIENS,don99,8.0
178,178,178,ObjectId(5c223614816b2431634b7afd),"2-8 Pleasant Street, Hingham, MA 02043, USA",,42228838,-70881375,Hingham Congregational Church,BoethiusX,2020-07-08 01:44:26+00:00,2020-07-18 10:11:38.201000+00:00,"{""timestamp"":{""$numberLong"":""1594172666249""},""plain"":2}",5174612,,Hingham,,United States of America,02043,US,Hingham,42.228838,-70.881375,ALIENS,sallythetimid,1.0
179,179,179,ObjectId(5c223672816b2431635f90d5),"115 Downderry Rd, Bromley BR1 5QE, UK","Entrance to the Downham section of the Green Chain Walk - a walk along a green belt of woodland through Downham, Grove Park and Bromley.",51429469,-1472,Capital Ring Green Chain Walk,_NEUTRAL_,2020-07-18 22:12:27.374000+00:00,2020-07-18 22:12:27.374000+00:00,"{""timestamp"":{""$numberLong"":""1592147246649""},""plain"":5}",6441876,,,London,United Kingdom,BR1 5NT,GB,London,51.429469,-0.001472,RESISTANCE,Yennenga,1.0
180,180,180,ObjectId(5c223640816b24316355eaa1),"Rue de la Haie À Sorel, 78990 Élancourt, France",,48773894,1945531,A La Memoire De l'équipage,_NEUTRAL_,2020-07-19 21:56:11.763000+00:00,2020-07-19 21:56:11.763000+00:00,"{""timestamp"":{""$numberLong"":""1581945781872""},""plain"":2}",5833442,,Élancourt,,France,78990,FR,Élancourt,48.773894,1.945531,ALIENS,burnyfighter,2.0
181,181,181,ObjectId(5c22360c816b2431634994b0),"Universitas Brawijaya, Jalan Samantha Krida, Kecamatan Lowokwaru, Kota Malang, Jawa Timur 65145, Republic of Indonesia",,-7953300,112615397,Patung Coklat,_NEUTRAL_,2020-07-18 02:56:12.133000+00:00,2020-07-18 02:56:12.133000+00:00,"{""timestamp"":{""$numberLong"":""1592906005280""},""plain"":1}",5053974,,,Malang,Indonesia,65145,ID,Malang,-7.9533,112.615397,ALIENS,gendengkalem,3.0
182,182,182,ObjectId(5c223659816b2431635abe7a),"91-1 Ninomiya, Ninomiya-machi, Naka-gun, Kanagawa-ken 259-0123, Japan",,35296563,139260543,袖が浦公園,_NEUTRAL_,2020-07-18 07:20:30.923000+00:00,2020-07-18 07:20:30.923000+00:00,"{""timestamp"":{""$numberLong"":""1585632910135""},""plain"":5}",6136747,,Ninomiya,,Japan,259-0112,JP,Ninomiya,35.296563,139.260543,ALIENS,takashimaru,2.0
183,183,183,ObjectId(5c22359b816b2431632e10bc),"Chalenstrasse 94, 8123 Ebmatingen, Switzerland",,47346549,8642614,Gestrandet,dergruenefritz,2020-07-18 16:14:43+00:00,2020-07-18 16:43:40.878000+00:00,"{""timestamp"":{""$numberLong"":""1595089165392""},""plain"":4}",3305869,Maur,,,Switzerland,8123,CH,Maur,47.346549,8.642614,ALIENS,seebueb2003,2.0
184,184,184,ObjectId(5eba92b004dea7bd5773e3c3),"Santa Rosa de Manchay, Manchay Bajo Lote B, Pachacámac, Province of Lima, Lima, LIMA 19, Peru",,-12152622,-76874963,Mesas De Ajedrez #2,_NEUTRAL_,2020-07-18 10:54:22.324000+00:00,2020-07-18 10:54:22.324000+00:00,,11949950,,,Pachacámac,Peru,LIMA 19,PE,Pachacámac,-12.152622,-76.874963,MISSING,,0.0
185,185,185,ObjectId(5c22353f816b24316313e25d),"Windemere Road, Alexandra Hills QLD 4161, Australia",,-27522630,153215933,Alexandra Hills Community Hall,DemiurgeAU,2020-07-18 10:33:52+00:00,2020-07-18 11:03:22.442000+00:00,"{""timestamp"":{""$numberLong"":""1595068432614""},""plain"":1}",1639231,,,Brisbane,Australia,4161,AU,Brisbane,-27.52263,153.215933,ALIENS,ldog,2.0
186,186,186,ObjectId(5c223589816b243163297d7a),"Gangwei Street, Panyu, Guangzhou, Guangdong, China, 511430",,23015407,113333320,屎嗨城高機動型渣滓,GlennChan,2020-07-05 13:29:59+00:00,2020-07-18 17:01:03.526000+00:00,"{""timestamp"":{""$numberLong"":""1593955799510""},""plain"":1}",3015319,,,Guangzhou City,China,511430,CN,Guangzhou City,23.015407,113.33332,RESISTANCE,JohnnyDOP,2.0
187,187,187,ObjectId(5c3cee8df9cca9d4cb1d63dd),"1707 West Kem Road,Marion,IN,US,46952",,40574248,-85681037,Circle K 1707 West Kem Road,,2012-11-15 00:00:00+00:00,2018-06-07 17:58:57+00:00,"{""timestamp"":{""$numberLong"":""1527190093994""},""plain"":5}",7514290,,,Marion,United States of America,46952,US,Marion,40.574248,-85.681037,MISSING,,0.0
188,188,188,ObjectId(5c223596816b2431632ced42),"1371-1399 Southwest Avery Park Drive, Corvallis, OR 97333, USA","Dedication plaque for the children's play area, 1972",44552780,-123271200,Corvallis Junior Women's Club,_NEUTRAL_,2020-07-19 21:22:53.405000+00:00,2020-07-19 21:22:53.405000+00:00,"{""timestamp"":{""$numberLong"":""1574121004261""},""plain"":2}",3233677,,,Corvallis,United States of America,97333,US,Corvallis,44.55278,-123.2712,RESISTANCE,Aonghus,1.0
189,189,189,ObjectId(5e45c16602ce99e0d89e2396),"3 Poniente, Parral, Maule, Chile",,-36137641,-71839515,Joven Hermosa,_NEUTRAL_,2020-07-17 11:44:45.520000+00:00,2020-07-17 11:44:45.520000+00:00,"{""timestamp"":{""$numberLong"":""1584986681567""},""plain"":5}",10781400,,Parral,,Chile,3630000,CL,Parral,-36.137641,-71.839515,MISSING,,0.0
190,190,190,ObjectId(5c22359a816b2431632de319),"10 Capstan Lane, Whitby, Porirua 5024, New Zealand","An old capstan from the navy frigate HMNZS Wellington, which was scuttled as a dive site off Island Bay in 2005. ",-41111942,174891169,Wellington Capstan,OROCON,2020-04-25 05:40:01+00:00,2020-07-18 02:02:34.726000+00:00,"{""timestamp"":{""$numberLong"":""1591585292653""},""plain"":5}",3294601,,,Porirua,New Zealand,5037,NZ,Porirua,-41.111942,174.891169,RESISTANCE,SpiderBite,1.0
191,191,191,ObjectId(5c22363f816b24316355a985),"7 Tulip Close, Alfords Point NSW 2234, Australia",,-33993605,151021622,Alfords Point Public Reserve,_NEUTRAL_,2020-07-17 23:16:07.334000+00:00,2020-07-17 23:16:07.334000+00:00,"{""timestamp"":{""$numberLong"":""1568244180795""},""plain"":2}",5817578,,,Sydney,Australia,2234,AU,Sydney,-33.993605,151.021622,RESISTANCE,Zedire,1.0
192,192,192,ObjectId(5cac6aab34909fe848c04ea0),[Unknown Location],,32630117,130609234,笑顔の楽園　みんなの広場,_NEUTRAL_,2020-07-18 08:14:51.304000+00:00,2020-07-18 08:14:51.304000+00:00,"{""timestamp"":{""$numberLong"":""1587887181340""},""plain"":1}",8422115,,,Uki,Japan,,JP,Uki,32.630117,130.609234,ALIENS,zoom1788,1.0
193,193,193,ObjectId(5c223602816b24316346a7b5),"Rod. Mário Covas, 2500 - Una, Belém - PA, 66650-000, Brazil",Fundado em 18/08/1922,-1368030,-48422933,Comieadepa,JhonatanX,2020-06-04 16:17:04+00:00,2020-07-19 18:34:10.055000+00:00,"{""timestamp"":{""$numberLong"":""1594213396632""},""plain"":1}",4867900,,,Belém,Brazil,66650-000,BR,Belém,-1.36803,-48.422933,ALIENS,N4V4RR0,3.0
194,194,194,ObjectId(5c2235cc816b24316339ce62),"Tuvevägen 75, 417 49 Göteborg, Sweden",,57742983,11938927,Grimbo Bangolf,xyrryz,2020-07-13 13:08:06+00:00,2020-07-18 18:32:48.645000+00:00,"{""timestamp"":{""$numberLong"":""1594645674880""},""plain"":3}",4050867,,,Gothenburg,Sweden,417 49,SE,Gothenburg,57.742983,11.938927,ALIENS,mellemannen,1.0
195,195,195,ObjectId(5c223666816b2431635d71af),"4190 Aumsville Highway Southeast, Salem, OR 97317, USA",We the people ,44893032,-122955663,We The People,_NEUTRAL_,2020-07-18 00:50:21.375000+00:00,2020-07-18 00:50:21.375000+00:00,"{""timestamp"":{""$numberLong"":""1581777285471""},""plain"":5}",6307687,,,Salem,United States of America,97317,US,Salem,44.893032,-122.955663,ALIENS,EliKing,1.0
196,196,196,ObjectId(5c64145063c50c1d5118f6f8),"106-2 Kawabatamachi, Maebashi-shi, Gunma-ken 371-0041, Japan",,36433417,139056341,道端の石碑群,takenyan,2020-06-28 06:37:57+00:00,2020-07-19 10:28:27.771000+00:00,"{""timestamp"":{""$numberLong"":""1593326277322""},""plain"":2}",7900860,,,Maebashi,Japan,3710037,JP,Maebashi,36.433417,139.056341,RESISTANCE,MeaL5,1.0
197,197,197,ObjectId(5cf7d0374d02b972d8cd7d5d),"1 Shiluzi 1st Alley, Lufeng Shi, Shanwei Shi, Guangdong Sheng, China, 516508",此碑面向的河即是东河，东海镇特色之一，这条河贯穿全镇，端午节时会有龙舟比赛。,22948587,115640830,东河碑,_NEUTRAL_,2020-07-18 11:37:02.459000+00:00,2020-07-18 11:37:02.459000+00:00,"{""timestamp"":{""$numberLong"":""1579878175345""},""plain"":4}",8766345,红光村,,Lufeng City,China,516500,CN,Lufeng City,22.948587,115.64083,ALIENS,LionLam,1.0
198,198,198,ObjectId(5c2235f4816b24316343b5a6),"Plaza España, 3, 18630 Otura, Granada, Spain",,37094287,-3634786,Ayuntamiento De Otura 1986,nauj27,2020-07-11 22:30:06+00:00,2020-07-19 15:21:38.411000+00:00,"{""timestamp"":{""$numberLong"":""1594506606637""},""plain"":2}",4679943,Villa de Otura,,,Spain,18630,ES,Villa de Otura,37.094287,-3.634786,ALIENS,samorai95,4.0
199,199,199,ObjectId(5c3ceee9f9cca9d4cb1e375d),"15-99 Municipal Drive, Fishers, IN 46038, USA",,39958425,-86016157,Hamilton County Visitors Center,,2012-11-15 00:00:00+00:00,2018-11-09 20:47:55+00:00,"{""timestamp"":{""$numberLong"":""1541623847309""},""plain"":5}",7551221,,Fishers,,United States of America,46038,US,Fishers,39.958425,-86.016157,RESISTANCE,n8dagr8,1.0
200,200,200,ObjectId(5c22354e816b243163189df9),"5803 Conover Road, Taneytown, MD 21787, USA",Harney,39717424,-77199807,Charles W. Bridinger Memorial Building,_NEUTRAL_,2020-07-18 01:08:15.917000+00:00,2020-07-18 01:08:15.917000+00:00,"{""timestamp"":{""$numberLong"":""1584736594355""},""plain"":4}",1941598,,,,United States of America,21787,US,,39.717424,-77.199807,RESISTANCE,pbgroupie,1.0
201,201,201,ObjectId(5c223529816b2431630e13c5),"1336 Tannowa, Misaki-chō, Sennan-gun, Ōsaka-fu 599-0301, Japan",,34336085,135176201,淡輪黒崎の浜　お地蔵さま,_NEUTRAL_,2020-07-18 16:05:22.573000+00:00,2020-07-18 16:05:22.573000+00:00,"{""timestamp"":{""$numberLong"":""1573377386487""},""plain"":1}",1270596,,Misaki,,Japan,599-0301,JP,Misaki,34.336085,135.176201,ALIENS,833hasami,2.0
202,202,202,ObjectId(5da4b566707d7a0dd36cd8f0),"Sta María 5542, Vitacura, Región Metropolitana, Chile",Pileta inaugurada el 1 de Junio de 1900,-33383229,-70593613,Pileta Santa Maria,_NEUTRAL_,2020-07-19 15:10:20.727000+00:00,2020-07-19 15:10:20.727000+00:00,"{""timestamp"":{""$numberLong"":""1584471459011""},""plain"":1}",9525520,,,Vitacura,Chile,7630249,CL,Vitacura,-33.383229,-70.593613,MISSING,,0.0
203,203,203,ObjectId(5c223636816b243163531e9a),"2100-2198 13th Avenue North, St. Petersburg, FL 33713, USA",,27784586,-82662644,Booker Creek ,_NEUTRAL_,2020-07-18 10:59:34.792000+00:00,2020-07-18 10:59:34.792000+00:00,"{""timestamp"":{""$numberLong"":""1576430697508""},""plain"":4}",5656226,,,Saint Petersburg,United States of America,33713,US,Saint Petersburg,27.784586,-82.662644,ALIENS,Spee42,1.0
204,204,204,ObjectId(5d3ebb66572d3acc4f510ace),"5 Paston Rd, Mundesley, Norwich NR11 8BN, UK","Coastal footpath, taking you on a beautiful walk along the coast of Mundesley ",52875729,1441598,Norfolk Trail Plaque ,_NEUTRAL_,2020-07-17 13:49:53.124000+00:00,2020-07-17 13:49:53.124000+00:00,"{""timestamp"":{""$numberLong"":""1582471885594""},""plain"":2}",9068366,,,North Norfolk,United Kingdom,NR11 8BQ,GB,North Norfolk,52.875729,1.441598,ALIENS,Bajomee,1.0
205,205,205,ObjectId(5c223538816b243163121a49),"Kornmarkt 5, 54290 Trier, Germany",,49755170,6639062,Altstadt,FritzTheCat64,2020-07-18 15:38:30+00:00,2020-07-18 16:08:58.878000+00:00,"{""timestamp"":{""$numberLong"":""1595086710978""},""plain"":1}",1525873,,,Trier,Germany,54290,DE,Trier,49.75517,6.639062,RESISTANCE,eviltun3s,2.0
206,206,206,ObjectId(5c223573816b2431632354d9),"Haharina Ave, 20а, Kharkiv, Kharkiv Oblast, Ukraine",,49981437,36245433,Тоска Индустриальная Обыкновенная,Arb1tr,2020-07-13 11:53:56+00:00,2020-07-18 17:06:40.317000+00:00,"{""timestamp"":{""$numberLong"":""1594641236086""},""plain"":1}",2622485,,,Kharkiv,Ukraine,61140,UA,Kharkiv,49.981437,36.245433,ALIENS,dbaik,2.0
207,207,207,ObjectId(5c223622816b2431634e9349),"K. H. Borovského 1146/2, 434 01 Most, Czechia",Sloup u DDM Most,50506410,13659155,Labutě ,BAAR,2020-04-30 15:35:48+00:00,2020-07-19 01:16:28.814000+00:00,"{""timestamp"":{""$numberLong"":""1588260948918""},""plain"":2}",5368537,,Most,,Czech Republic,43401,CZ,Most,50.50641,13.659155,ALIENS,Marhys,1.0
208,208,208,ObjectId(5eb0b53904dea7bd579ba437),"Occidental Grand Xcaret, Carretera Federal, Santa Fe, Playa del Carmen, Solidaridad, Quintana Roo, 777717, Mexico",,20583440,-87115583,Occidental Compass,_NEUTRAL_,2020-07-18 12:20:11.660000+00:00,2020-07-18 12:20:11.660000+00:00,,11895329,,,Playa del Carmen,Mexico,777717,MX,Playa del Carmen,20.58344,-87.115583,MISSING,,0.0
209,209,209,ObjectId(5c223584816b24316327fe3f),"41 Boulevard du Maréchal Foch, 95210 Saint-Gratien, France",Fresque murale Saint-Gratien,48964639,2287724,Vache Noire,affelwoolf,2020-07-10 13:22:37+00:00,2020-07-18 06:59:06.082000+00:00,"{""timestamp"":{""$numberLong"":""1594387353112""},""plain"":3}",2919648,,Saint-Gratien,,France,95210,FR,Saint-Gratien,48.964639,2.287724,ALIENS,FTP67,1.0
210,210,210,ObjectId(5ed7d056f7064100f407167f),"K7888 29, 08491 Netzschkau, Germany",,50607876,12242752,An Gottes Segen ist alles gelegen,_NEUTRAL_,2020-07-19 16:38:15.316000+00:00,2020-07-19 16:38:15.316000+00:00,"{""timestamp"":{""$numberLong"":""1591201865051""},""plain"":1}",12091066,,Netzschkau,,Germany,08491,DE,Netzschkau,50.607876,12.242752,MISSING,,0.0
211,211,211,ObjectId(5d71f9bb707d7a0dd3a989bd),"Calle Arístides Briand, 6, 35010 Las Palmas de Gran Canaria, Las Palmas, Spain",Gigantesco mural situado en el parque ee Pino Apolinario.,28137020,-15436573,Mural: El huerto de Pino Apolinario,elrialputoamo,2020-06-16 19:23:04+00:00,2020-07-17 12:39:30.956000+00:00,"{""timestamp"":{""$numberLong"":""1595157470695""},""plain"":3}",9278569,,,Las Palmas de Gran Canaria,Spain,35007,ES,Las Palmas de Gran Canaria,28.13702,-15.436573,ALIENS,whosMagic,1.0
212,212,212,ObjectId(5d24b398572d3acc4fef401a),"Sherwood Heath Local Nature Reserve, A616, Ollerton, Newark NG22 9DR, UK",A broad placed within a 100 meters of the car park with history of Sherwood Forest and Robin Hood,53201260,-1029396,Sherwood Heath Info And History Board,TykeChick,2020-07-14 20:58:01+00:00,2020-07-17 12:05:31.781000+00:00,"{""timestamp"":{""$numberLong"":""1594760281222""},""plain"":2}",8964974,,Nottinghamshire,Newark and Sherwood,United Kingdom,NG22 9DR,GB,Newark and Sherwood,53.20126,-1.029396,RESISTANCE,Laarster,1.0
213,213,213,ObjectId(5ef1ecb8f7064100f49ce4be),"2693, Glen St, Metcalfe, Ottawa, Ottawa, Ontario, Canada",,45229502,-75475132,Pedestrian walking bridge,_NEUTRAL_,2020-07-20 03:55:11.302000+00:00,2020-07-20 03:55:11.302000+00:00,,12316954,Osgoode,,Ottawa,Canada,K0A 2P0,CA,Ottawa,45.229502,-75.475132,MISSING,,0.0
214,214,214,ObjectId(5c5054e6bfa8467421012ebb),"Via Piave, 5, 24066 Pedrengo BG, Italy","Casetta per scambio libri libero, progetto cultura pedrengo 2018",45700728,9729812,Casetta Scambio Libri,_NEUTRAL_,2020-07-17 14:22:52.218000+00:00,2020-07-17 14:22:52.218000+00:00,"{""timestamp"":{""$numberLong"":""1577618574510""},""plain"":3}",7756211,Pedrengo,,,Italy,24066,IT,Pedrengo,45.700728,9.729812,RESISTANCE,Carle92,1.0
215,215,215,ObjectId(5c223654816b24316359ba14),"Nad Wisłą 3, Tczew, Poland",,54085443,18805124,Drzewa W Barwach Tczewa,_NEUTRAL_,2020-07-17 16:09:12.422000+00:00,2020-07-17 16:09:12.422000+00:00,"{""timestamp"":{""$numberLong"":""1590431774525""},""plain"":1}",6073978,,Tczew,,Poland,83-110,PL,Tczew,54.085443,18.805124,ALIENS,SolarisFTW,1.0
216,216,216,ObjectId(5c2235fd816b243163462bb9),"Stammersdorfer Straße 253, 1210 Vienna, Austria",,48296111,16437500,Stammersdorfer Mosaik,_NEUTRAL_,2020-07-19 17:52:22.100000+00:00,2020-07-19 17:52:22.100000+00:00,"{""timestamp"":{""$numberLong"":""1591534727978""},""plain"":1}",4836986,,,Vienna,Austria,1210,AT,Vienna,48.296111,16.4375,MISSING,,0.0
217,217,217,ObjectId(5c2236b0816b2431636c8f9a),"D247, 46200 Lacave, France",,44828289,1570458,Parasaurolophus,_NEUTRAL_,2020-07-19 22:16:53.218000+00:00,2020-07-19 22:16:53.218000+00:00,"{""timestamp"":{""$numberLong"":""1558288732303""},""plain"":3}",7265219,Lacave,,,France,46200,FR,Lacave,44.828289,1.570458,RESISTANCE,DropaJopar,1.0
218,218,218,ObjectId(5efe2a64f7064100f47439b4),"St Patrick's, Deedmore Road, Alderman's Green, Henley Green, Coventry, West Midlands Combined Authority, West Midlands, England, CV2 1XA, United Kingdom",,52437254,-1460782,St Patrick’s Catholic Church,_NEUTRAL_,2020-07-17 12:25:15.848000+00:00,2020-07-17 12:25:15.848000+00:00,,12395484,,,Coventry,United Kingdom,CV2 1XA,GB,Coventry,52.437254,-1.460782,MISSING,,0.0
219,219,219,ObjectId(5c223594816b2431632c7e2a),"Jalan Gatotkaca, Jati, Kabupaten Kudus, Jawa Tengah 59344, Indonesia",,-6821679,110848425,Musholla Al Mubarok,Sky0cean,2020-06-26 04:18:42+00:00,2020-07-18 10:44:34.048000+00:00,"{""timestamp"":{""$numberLong"":""1593764765618""},""plain"":5}",3206066,Hutan,,,Indonesia,59321,ID,Hutan,-6.821679,110.848425,RESISTANCE,Saudagar,1.0
220,220,220,ObjectId(5c223582816b2431632754c7),"150 South Bent Avenue, San Marcos, CA 92078, USA",,33137363,-117183657,Fry's Fish Tank Gazebo,_NEUTRAL_,2020-07-18 08:09:16.069000+00:00,2020-07-18 08:09:16.069000+00:00,"{""timestamp"":{""$numberLong"":""1592754361605""},""plain"":2}",2877364,,San Marcos,,United States of America,92078,US,San Marcos,33.137363,-117.183657,ALIENS,plinytheeldest,2.0
221,221,221,ObjectId(5e86cb56402e17f77188cb7d),"142 Commercial St, Worcester, MA 01608, USA",,42265302,-71799263,Centrum in Worcester Inaugural Celebration,Garryth,2020-07-14 11:57:46+00:00,2020-07-18 12:43:24.054000+00:00,"{""timestamp"":{""$numberLong"":""1595075278663""},""plain"":5}",11147815,,,Worcester,United States of America,01608,US,Worcester,42.265302,-71.799263,MISSING,,0.0
222,222,222,ObjectId(5c223588816b24316328fc8a),"Plaça Santiago Rusiñol, S/N, 08770 Sant Sadurní d'Anoia, Barcelona, Spain",,41422537,1781356,Correos,noa23,2020-07-18 11:12:55+00:00,2020-07-18 11:27:54.332000+00:00,"{""timestamp"":{""$numberLong"":""1595070775431""},""plain"":1}",2983120,,Sant Sadurní d'Anoia,,Spain,08770,ES,Sant Sadurní d'Anoia,41.422537,1.781356,RESISTANCE,HappyDave,1.0
223,223,223,ObjectId(5ead85b704dea7bd570844ea),"Piastowska 115, 46-380 Dobrodzień, Poland",,50712397,18447320,Dobrodzień - Stadion,DanielT73,2020-05-06 20:25:24+00:00,2020-07-17 20:49:40.307000+00:00,"{""timestamp"":{""$numberLong"":""1588796724003""},""plain"":2}",11852214,,Dobrodzień,,Poland,46-380,PL,Dobrodzień,50.712397,18.44732,MISSING,,0.0
224,224,224,ObjectId(5e708f82402e17f7719feae0),"2139 N 13th St, Reading, PA 19604, USA",,40369277,-75907035,Harold E. Schearer Radio Tower,MrBobLavendar,2020-05-24 18:30:45+00:00,2020-07-19 04:35:51.650000+00:00,"{""timestamp"":{""$numberLong"":""1590345146623""},""plain"":5}",10998502,,,Reading,United States of America,19604,US,Reading,40.369277,-75.907035,MISSING,,0.0
225,225,225,ObjectId(5c223570816b243163225413),"7136 Place Pomey, 04360 Moustiers-Sainte-Marie, France",,43847381,6223437,Moustier St Marie JC porte sa Croix,StrangeSavage,2020-05-27 12:44:47+00:00,2020-07-18 19:02:59.404000+00:00,"{""timestamp"":{""$numberLong"":""1594646930719""},""plain"":4}",2558387,Moustiers-Sainte-Marie,,,France,04360,FR,Moustiers-Sainte-Marie,43.847381,6.223437,RESISTANCE,Mamie,2.0
226,226,226,ObjectId(5edbe2899707740001dd51d6),"2104-1, 松原町, Nagasaki-shi, Nagasaki, Nagasaki Prefecture, Japan",,32799761,129951161,松原公民館,PrincessRococo,2020-05-29 08:19:03.646000+00:00,2020-07-19 02:57:07.545000+00:00,,12106496,,,Nagasaki,Japan,850-8685,JP,Nagasaki,32.799761,129.951161,MISSING,,0.0
227,227,227,ObjectId(5de533731d69b2b9bead92ef),"Semashka St, 7, Bila Tserkva, Kyivs'ka oblast, Ukraine, 09100",Статуя сім'ї. Знак єдності та щастя.,49811768,30079032,"Статуя ""Сім'ї""",_NEUTRAL_,2020-07-18 23:39:16.820000+00:00,2020-07-18 23:39:16.820000+00:00,"{""timestamp"":{""$numberLong"":""1588434690896""},""plain"":5}",10116960,,,Bila Tserkva,Ukraine,09100-09117,UA,Bila Tserkva,49.811768,30.079032,MISSING,,0.0
228,228,228,ObjectId(5c223577816b243163248565),Unnamed Road - Abu Dhabi - United Arab Emirates,,24491305,54603315,Future Fountain,_NEUTRAL_,2020-07-18 00:47:27.247000+00:00,2020-07-18 00:47:27.247000+00:00,"{""timestamp"":{""$numberLong"":""1580965519829""},""plain"":1}",2698521,,,Abu Dhabi,United Arab Emirates,,AE,Abu Dhabi,24.491305,54.603315,ALIENS,btalaga,1.0
229,229,229,ObjectId(5e966989402e17f771998913),"Av. Adolfo López Mateos 614, Guadalupana, 56616 Valle de Chalco Solidaridad, Méx., Mexico",,19274237,-98935156,Ex hacienda Xico,FerminCorp,2020-06-18 00:21:57+00:00,2020-07-17 19:58:35.374000+00:00,"{""timestamp"":{""$numberLong"":""1592439717100""},""plain"":1}",11407700,,,Xico,Mexico,56616,MX,Xico,19.274237,-98.935156,MISSING,,0.0
230,230,230,ObjectId(5c223672816b2431635f85f4),"Zandstraat 2B, 1011 HK Amsterdam, Netherlands",,52370277,4898573,Streetart Amsterdam,_NEUTRAL_,2020-07-19 18:52:00.115000+00:00,2020-07-19 18:52:00.115000+00:00,"{""timestamp"":{""$numberLong"":""1595172893419""},""plain"":3}",6439150,,,Amsterdam,The Netherlands,1011HK,NL,Amsterdam,52.370277,4.898573,RESISTANCE,Albay,4.0
231,231,231,ObjectId(5c22369f816b24316368b9b3),"Tokachi National Highway, Higashiyamachō, Urahoro-chō, Tokachi-gun, Hokkaidō 089-5612, Japan",,42809445,143662301,浦幌神社　領徳碑,monchankochan,2020-06-28 08:34:28+00:00,2020-07-17 13:31:28.221000+00:00,"{""timestamp"":{""$numberLong"":""1593333268463""},""plain"":2}",7020556,,Urahoro,,Japan,,JP,Urahoro,42.809445,143.662301,RESISTANCE,Kareidscope,1.0
232,232,232,ObjectId(5c6f8685c1ab2db979f62f9c),"Bruce B Downs Blvd & Birchcreek Dr, Florida 33543, USA","This multimedia display depicts the foundation of creation.  Each piece represents a day.  Through the use of additional images,  each day becomes more complex to represent the building of creation.  October 1, 2012.  Location in the main lobby of the hospital,  well away from emergency services and patient rooms.",28195569,-82351013,Seven Days Of Creation,_NEUTRAL_,2020-07-18 10:55:58.248000+00:00,2020-07-18 10:55:58.248000+00:00,"{""timestamp"":{""$numberLong"":""1562013526433""},""plain"":4}",7991700,,Wesley Chapel,,United States of America,,US,Wesley Chapel,28.195569,-82.351013,RESISTANCE,raistlinxw,1.0
233,233,233,ObjectId(5c2235a9816b2431633157a0),"3400 North Museum Point, Crystal River, FL 34428, USA","Stele 2 (Crystal River Archeological State Park)

The ramp from the second temple mound points directly at this undecorated stele.",28908769,-82628297,Stele 2,_NEUTRAL_,2020-07-20 01:30:35.570000+00:00,2020-07-20 01:30:35.570000+00:00,"{""timestamp"":{""$numberLong"":""1559506461949""},""plain"":1}",3511443,Crystal River,,,United States of America,34428,US,Crystal River,28.908769,-82.628297,RESISTANCE,Paintura13,2.0
234,234,234,ObjectId(5c2235aa816b24316331adc6),"Ospedale Serristori, 50063 Figline Valdarno Florence, Italy",,43613363,11476163,Targa Conte Serristori,_NEUTRAL_,2020-07-18 09:00:18.056000+00:00,2020-07-18 09:00:18.056000+00:00,"{""timestamp"":{""$numberLong"":""1592235861932""},""plain"":1}",3532884,,Figline e Incisa Valdarno,,Italy,50063,IT,Figline e Incisa Valdarno,43.613363,11.476163,RESISTANCE,McGregorII,1.0
235,235,235,ObjectId(5c2235f4816b24316343be52),"Burzecka 16, 21-411, Poland",,51770122,22288107,Krzyż Grądy,_NEUTRAL_,2020-07-19 20:23:56.329000+00:00,2020-07-19 20:23:56.329000+00:00,"{""timestamp"":{""$numberLong"":""1551951175093""},""plain"":1}",4682102,Glinne,,,Poland,21-411,PL,Glinne,51.770122,22.288107,RESISTANCE,TheRabbitPunch,1.0
236,236,236,ObjectId(5c223506816b243163026117),"Archivo Histórico Provincial, 02005 Albacete, Spain",,38995906,-1857020,Sala De Exposición Y Archivo Histórico,Socoloko,2020-07-05 09:59:12+00:00,2020-07-18 11:51:16.784000+00:00,"{""timestamp"":{""$numberLong"":""1593943152299""},""plain"":2}",524946,,,Albacete,Spain,02001,ES,Albacete,38.995906,-1.85702,RESISTANCE,jinx314,2.0
237,237,237,ObjectId(5c4c558ebfa846742117ae1f),"Datt Mandir Rd, Doghar Pada, Vartak Ward, Virar West, Virar, Maharashtra 401303, India",Place where children can play,19453902,72804785,Viva Garden ,_NEUTRAL_,2020-07-18 16:51:40.197000+00:00,2020-07-18 16:51:40.197000+00:00,"{""timestamp"":{""$numberLong"":""1582982675391""},""plain"":3}",7725410,,,Vasai-Virar,India,401303,IN,Vasai-Virar,19.453902,72.804785,ALIENS,raac2993,1.0
238,238,238,ObjectId(5c223560816b2431631e1f12),"3819 North 27th Street, Tacoma, WA 98407, USA",William P. Doughtery Masonic Temple,47272108,-122488001,William P. Doughtery Masonic Temple,drquackery,2020-07-19 09:15:00+00:00,2020-07-19 09:28:25.434000+00:00,"{""timestamp"":{""$numberLong"":""1595150100888""},""plain"":2}",2291953,,,Tacoma,United States of America,98407,US,Tacoma,47.272108,-122.488001,RESISTANCE,Scotty,2.0
239,239,239,ObjectId(5c2235fc816b24316345b60a),"Gatbo Road, Ocampo, Camarines Sur, Philippines","Poblacion West, Ocampo, Philippines",13560604,123375819,St. Bernard Abbot Statue,_NEUTRAL_,2020-07-18 07:24:05.954000+00:00,2020-07-18 07:24:05.954000+00:00,"{""timestamp"":{""$numberLong"":""1556324541363""},""plain"":4}",4807628,,Ocampo,,Philippines,,PH,Ocampo,13.560604,123.375819,RESISTANCE,siopaogoldfish,1.0
240,240,240,ObjectId(5e898900402e17f77117903a),"Av. Monestir de Poblet, 9, 46960 Aldaia, Valencia, Spain",,39460988,-459371,Pistas de pádel,BeteraLibre,2020-06-29 05:43:24+00:00,2020-07-18 15:07:57.193000+00:00,"{""timestamp"":{""$numberLong"":""1593409404587""},""plain"":1}",11196751,,Aldaia,,Spain,,ES,Aldaia,39.460988,-0.459371,MISSING,,0.0
241,241,241,ObjectId(5c223654816b24316359c36d),"Ave. Tecnológico, Santo Niño, 31200 Chihuahua, Chihuahua, Mexico",Iglesia católica en honor al Santo Niño de Atocha. Construcción finalizada octubre 24 de 1890.,28650827,-106072714,Templo Santo Niño,_NEUTRAL_,2020-07-20 01:41:32.878000+00:00,2020-07-20 01:41:32.878000+00:00,"{""timestamp"":{""$numberLong"":""1575181689078""},""plain"":1}",6076208,,,Chihuahua,Mexico,31203,MX,Chihuahua,28.650827,-106.072714,ALIENS,Templarmx,2.0
242,242,242,ObjectId(5edf26289707740001dd5938),"Cra. 13 #13109, Funza, Cundinamarca, Colombia",,4716692,-74212187,Placa De La Urna Centenaria,_NEUTRAL_,2020-07-19 19:53:08.544000+00:00,2020-07-19 19:53:08.544000+00:00,"{""timestamp"":{""$numberLong"":""1585522644873""},""plain"":4}",12144931,,Funza,,Colombia,250020,CO,Funza,4.716692,-74.212187,MISSING,,0.0
243,243,243,ObjectId(5c22358f816b2431632b3da5),"산3-9 Sangjin-ri, Danyang-eup, Danyang-gun, Chungcheongbuk-do, South Korea",,36975399,128363507,승리의 나팔,_NEUTRAL_,2020-07-19 05:14:54.487000+00:00,2020-07-19 05:14:54.488000+00:00,"{""timestamp"":{""$numberLong"":""1588326452911""},""plain"":1}",3126569,Sangjin-ri,,,South Korea,27010,KR,Sangjin-ri,36.975399,128.363507,ALIENS,TuathaDeDanann,2.0
244,244,244,ObjectId(5c447957f9cca9d4cba10468),"China, Liaoning Province, Anshan District",,40578759,122973747,小孤山遗址洞穴——全国重点文物保护单位,_NEUTRAL_,2020-07-18 06:25:21.873000+00:00,2020-07-18 06:25:21.873000+00:00,"{""timestamp"":{""$numberLong"":""1490000000000""},""plain"":2}",7652023,,Xinglong Subdistrict,Haicheng City,China,,CN,Haicheng City,40.578759,122.973747,MISSING,,0.0
245,245,245,ObjectId(5c85072f6b45d75f9a5ffd6c),"Moskovskiy prospekt, 21, Pushkino, Moskovskaya oblast, Russia, 141207",,56009374,37853050,Памятник Скорбящей матери,Takabo,2019-03-09 10:51:31+00:00,2019-03-10 12:46:39+00:00,"{""timestamp"":{""$numberLong"":""1552144271154""},""plain"":3}",8284232,,,Pushkino,Russia,141202,RU,Pushkino,56.009374,37.85305,RESISTANCE,Fokkit,2.0
246,246,246,ObjectId(5c756be8596fdafe86325713),"1789 Ōsaosakabe, Niimi-shi, Okayama-ken 719-3503, Japan",,35083872,133562864,国司神社 本殿,_NEUTRAL_,2020-07-19 06:48:02.687000+00:00,2020-07-19 06:48:02.687000+00:00,"{""timestamp"":{""$numberLong"":""1587712789785""},""plain"":1}",8074260,,,Niimi,Japan,,JP,Niimi,35.083872,133.562864,RESISTANCE,miyamya,2.0
247,247,247,ObjectId(5c223588816b243163291d3d),"Markt 9, 37073 Göttingen, Germany",,51533015,9934979,Lichtenberg Denkmal Markt,Pillenflitzer,2020-07-03 10:37:57+00:00,2020-07-18 07:48:02.784000+00:00,"{""timestamp"":{""$numberLong"":""1594904771402""},""plain"":3}",2991294,,,Göttingen,Germany,37073,DE,Göttingen,51.533015,9.934979,ALIENS,twitr13,4.0
248,248,248,ObjectId(5c3ceebdf9cca9d4cb1dc750),"Vrtni put 1, 10000, Zagreb, Croatia",,45785664,16031476,Jazz,,2012-11-15 00:00:00+00:00,2018-08-22 23:13:33+00:00,"{""timestamp"":{""$numberLong"":""1534535084793""},""plain"":15}",7532356,,,Zagreb,Croatia,10000,HR,Zagreb,45.785664,16.031476,RESISTANCE,poshast,3.0
249,249,249,ObjectId(5c223505816b243163024098),"37 Zhonghe St, Zhoucun Qu, Zibo Shi, Shandong Sheng, China, 255300",,36798608,117850714,捧在手心里的爱,_NEUTRAL_,2020-07-18 13:56:28.982000+00:00,2020-07-18 13:56:28.982000+00:00,"{""timestamp"":{""$numberLong"":""1568463101243""},""plain"":1}",516846,,,周村区,China,,CN,周村区,36.798608,117.850714,ALIENS,oldtomato,1.0
